link	mun	region	lon	lat	ekatte	settlement_type	name	type	name_tr	mun_tr	region_tr
https://www.ekatte.com/област-добрич/община-генерал-тошево/генерал-тошево	Генерал Тошево	Добрич	28.039635	43.701676	14711	гр	Генерал Тошево	gr	general-toshevo	general-toshevo	dobrich
https://www.ekatte.com/област-софия/община-ихтиман/селянин	Ихтиман	София-област	23.724283	42.571766	66144	с	Селянин		seljanin	ihtiman	sofija-oblast
https://www.ekatte.com/област-шумен/община-шумен/шумен	Шумен	Шумен	26.936129	43.27124	83510	гр	Шумен	gr	shumen	shumen	shumen
https://www.ekatte.com/област-шумен/община-хитрино/калино	Хитрино	Шумен	26.982401	43.473126	35417	с	Калино		kalino	hitrino	shumen
https://www.ekatte.com/област-габрово/община-габрово/пейовци	Габрово	Габрово	25.234071	42.883537	55717	с	Пейовци		pejovtsi	gabrovo	gabrovo
https://www.ekatte.com/област-добрич/община-каварна/селце	Каварна	Добрич	28.290836	43.453293	66113	с	Селце		seltse	kavarna	dobrich
https://www.ekatte.com/област-бургас/община-царево/резово	Царево	Бургас	28.029858	41.984943	62459	с	Резово		rezovo	tsarevo	burgas
https://www.ekatte.com/област-благоевград/община-симитли/железница	Симитли	Благоевград	23.111037	41.922817	29146	с	Железница		zheleznitsa	simitli	blagoevgrad
https://www.ekatte.com/област-бургас/община-карнобат/сърнево	Карнобат	Бургас	27.091865	42.476003	70576	с	Сърнево		srnevo	karnobat	burgas
https://www.ekatte.com/област-хасково/община-стамболово/лясковец	Стамболово	Хасково	25.697911	41.713197	44803	с	Лясковец		ljaskovets	stambolovo	haskovo
https://www.ekatte.com/област-софия/община-горна-малина/осоица	Горна Малина	София-област	23.753431	42.744505	54287	с	Осоица		osoitsa	gorna-malina	sofija-oblast
https://www.ekatte.com/област-ямбол/община-болярово/дъбово	Болярово	Ямбол	26.778177	42.200269	24356	с	Дъбово		dbovo	boljarovo	jambol
https://www.ekatte.com/област-русе/община-иваново/щръклево	Иваново	Русе	26.042791	43.721264	84049	с	Щръклево		schrklevo	ivanovo	ruse
https://www.ekatte.com/област-хасково/община-димитровград/длъгнево	Димитровград	Хасково	25.548673	42.118491	21258	с	Длъгнево		dlgnevo	dimitrovgrad	haskovo
https://www.ekatte.com/област-велико-търново/община-елена/колари	Елена	Велико Търново	25.981114	42.883692	37976	с	Колари		kolari	elena	veliko-trnovo
https://www.ekatte.com/област-бургас/община-руен/средна-махала	Руен	Бургас	27.327305	42.843435	68401	с	Средна махала		sredna-mahala	ruen	burgas
https://www.ekatte.com/област-благоевград/община-гърмен/дъбница	Гърмен	Благоевград	23.834223	41.570825	24267	с	Дъбница		dbnitsa	grmen	blagoevgrad
https://www.ekatte.com/област-благоевград/община-хаджидимово/тешово	Хаджидимово	Благоевград	23.697224	41.466899	72374	с	Тешово		teshovo	hadzhidimovo	blagoevgrad
https://www.ekatte.com/област-велико-търново/община-велико-търново/пожерник	Велико Търново	Велико Търново	25.63285	42.944202	57114	с	Пожерник		pozhernik	veliko-trnovo	veliko-trnovo
https://www.ekatte.com/област-добрич/община-шабла/твърдица	Шабла	Добрич	28.457919	43.613249	72179	с	Твърдица		tvrditsa	shabla	dobrich
https://www.ekatte.com/област-кърджали/община-кирково/чакаларово	Кирково	Кърджали	25.304948	41.296517	80090	с	Чакаларово		chakalarovo	kirkovo	krdzhali
https://www.ekatte.com/област-бургас/община-малко-търново/младежко	Малко Търново	Бургас	27.371214	42.153692	48667	с	Младежко		mladezhko	malko-trnovo	burgas
https://www.ekatte.com/област-разград/община-разград/дряновец	Разград	Разград	26.385797	43.593889	23902	с	Дряновец		drjanovets	razgrad	razgrad
https://www.ekatte.com/област-разград/община-исперих/духовец	Исперих	Разград	27.001013	43.663822	24150	с	Духовец		duhovets	isperih	razgrad
https://www.ekatte.com/област-смолян/община-смолян/момчиловци	Смолян	Смолян	24.774634	41.658789	49014	с	Момчиловци		momchilovtsi	smoljan	smoljan
https://www.ekatte.com/област-благоевград/община-сандански/любовище	Сандански	Благоевград	23.442546	41.527297	44625	с	Любовище		ljubovische	sandanski	blagoevgrad
https://www.ekatte.com/област-силистра/община-кайнарджа/средище	Кайнарджа	Силистра	27.486372	43.901494	68357	с	Средище		sredische	kajnardzha	silistra
https://www.ekatte.com/област-кърджали/община-кирково/бързея	Кирково	Кърджали	25.324192	41.349235	7483	с	Бързея		brzeja	kirkovo	krdzhali
https://www.ekatte.com/област-сливен/община-котел/нейково	Котел	Сливен	26.367811	42.80961	51398	с	Нейково		nejkovo	kotel	sliven
https://www.ekatte.com/област-пловдив/община-първомай/караджалово	Първомай	Пловдив	25.313799	42.094564	36230	с	Караджалово		karadzhalovo	prvomaj	plovdiv
https://www.ekatte.com/област-перник/община-брезник/красава	Брезник	Перник	22.871552	42.79593	39517	с	Красава		krasava	breznik	pernik
https://www.ekatte.com/област-търговище/община-антоново/шишковица	Антоново	Търговище	26.144626	43.127737	83332	с	Шишковица		shishkovitsa	antonovo	trgovische
https://www.ekatte.com/област-кърджали/община-кърджали/стремово	Кърджали	Кърджали	25.407599	41.736258	69849	с	Стремово		stremovo	krdzhali	krdzhali
https://www.ekatte.com/област-разград/община-кубрат/точилари	Кубрат	Разград	26.476003	43.84684	72895	с	Точилари		tochilari	kubrat	razgrad
https://www.ekatte.com/област-кюстендил/община-кюстендил/ябълково	Кюстендил	Кюстендил	22.738806	42.306892	87062	с	Ябълково		jablkovo	kjustendil	kjustendil
https://www.ekatte.com/област-перник/община-брезник/непразненци	Брезник	Перник	22.844735	42.672374	51490	с	Непразненци		nepraznentsi	breznik	pernik
https://www.ekatte.com/област-пловдив/община-родопи/марково	Родопи	Пловдив	24.703545	42.063336	47295	с	Марково		markovo	rodopi	plovdiv
https://www.ekatte.com/област-кърджали/община-кърджали/невестино	Кърджали	Кърджали	25.373324	41.67163	35136	с	Невестино		nevestino	krdzhali	krdzhali
https://www.ekatte.com/област-монтана/община-чипровци/равна	Чипровци	Монтана	22.959417	43.386919	61090	с	Равна		ravna	chiprovtsi	montana
https://www.ekatte.com/област-софия/община-горна-малина/негушево	Горна Малина	София-област	23.706391	42.726415	51281	с	Негушево		negushevo	gorna-malina	sofija-oblast
https://www.ekatte.com/област-видин/община-кула/полетковци	Кула	Видин	22.519878	43.860048	57193	с	Полетковци		poletkovtsi	kula	vidin
https://www.ekatte.com/област-враца/община-мездра/злидол	Мездра	Враца	23.517503	43.080259	31190	с	Злидол		zlidol	mezdra	vratsa
https://www.ekatte.com/област-варна/община-провадия/блъсково	Провадия	Варна	27.329365	43.121492	4457	с	Блъсково		blskovo	provadija	varna
https://www.ekatte.com/област-търговище/община-търговище/момино	Търговище	Търговище	26.478481	43.265882	48920	с	Момино		momino	trgovische	trgovische
https://www.ekatte.com/област-кърджали/община-кирково/кукуряк	Кирково	Кърджали	25.478296	41.33295	40511	с	Кукуряк		kukurjak	kirkovo	krdzhali
https://www.ekatte.com/област-пазарджик/община-ракитово/ракитово	Ракитово	Пазарджик	24.087484	41.989488	62004	гр	Ракитово	gr	rakitovo	rakitovo	pazardzhik
https://www.ekatte.com/област-габрово/община-габрово/брънеците	Габрово	Габрово	25.360291	42.901661	6642	с	Брънеците		brnetsite	gabrovo	gabrovo
https://www.ekatte.com/област-търговище/община-омуртаг/росица	Омуртаг	Търговище	26.292759	43.140484	63104	с	Росица		rositsa	omurtag	trgovische
https://www.ekatte.com/област-търговище/община-търговище/братово	Търговище	Търговище	26.410864	43.179437	6166	с	Братово		bratovo	trgovische	trgovische
https://www.ekatte.com/област-монтана/община-берковица/слатина	Берковица	Монтана	23.221393	43.216365	67221	с	Слатина		slatina	berkovitsa	montana
https://www.ekatte.com/област-велико-търново/община-елена/цвеклювци	Елена	Велико Търново	25.803822	42.873723	78269	с	Цвеклювци		tsvekljuvtsi	elena	veliko-trnovo
https://www.ekatte.com/област-разград/община-кубрат/юпер	Кубрат	Разград	26.39651	43.911248	86091	с	Юпер		juper	kubrat	razgrad
https://www.ekatte.com/област-добрич/община-генерал-тошево/дъбовик	Генерал Тошево	Добрич	27.957774	43.687604	24339	с	Дъбовик		dbovik	general-toshevo	dobrich
https://www.ekatte.com/област-силистра/община-ситово/поляна	Ситово	Силистра	26.981579	44.060417	57385	с	Поляна		poljana	sitovo	silistra
https://www.ekatte.com/област-разград/община-разград/разград	Разград	Разград	26.541116	43.533672	61710	гр	Разград	gr	razgrad	razgrad	razgrad
https://www.ekatte.com/област-софия/община-сливница/пищане	Сливница	София-област	22.865768	42.824371	56558	с	Пищане		pischane	slivnitsa	sofija-oblast
https://www.ekatte.com/област-смолян/община-девин/жребево	Девин	Смолян	24.417574	41.5671	29502	с	Жребево		zhrebevo	devin	smoljan
https://www.ekatte.com/област-хасково/община-хасково/подкрепа	Хасково	Хасково	25.680561	41.91843	57042	с	Подкрепа		podkrepa	haskovo	haskovo
https://www.ekatte.com/област-благоевград/община-струмяни/гореме	Струмяни	Благоевград	23.091358	41.64107	16033	с	Гореме		goreme	strumjani	blagoevgrad
https://www.ekatte.com/област-велико-търново/община-елена/игнатовци	Елена	Велико Търново	25.963505	42.850813	32305	с	Игнатовци		ignatovtsi	elena	veliko-trnovo
https://www.ekatte.com/област-пазарджик/община-велинград/всемирци	Велинград	Пазарджик	23.867303	42.030569	12334	с	Всемирци		vsemirtsi	velingrad	pazardzhik
https://www.ekatte.com/област-добрич/община-крушари/ефрейтор-бакалово	Крушари	Добрич	27.609002	43.83372	27656	с	Ефрейтор Бакалово		efrejtor-bakalovo	krushari	dobrich
https://www.ekatte.com/област-софия/община-елин-пелин/габра	Елин Пелин	София-област	23.61082	42.534569	14074	с	Габра		gabra	elin-pelin	sofija-oblast
https://www.ekatte.com/област-велико-търново/община-елена/шилковци	Елена	Велико Търново	25.775389	42.925766	83171	с	Шилковци		shilkovtsi	elena	veliko-trnovo
https://www.ekatte.com/област-габрово/община-дряново/раданчето	Дряново	Габрово	25.506753	42.943138	61296	с	Раданчето		radancheto	drjanovo	gabrovo
https://www.ekatte.com/област-габрово/община-трявна/бърдени	Трявна	Габрово	25.554322	42.890754	7421	с	Бърдени		brdeni	trjavna	gabrovo
https://www.ekatte.com/област-пазарджик/община-септември/ковачево	Септември	Пазарджик	24.197588	42.205109	37491	с	Ковачево		kovachevo	septemvri	pazardzhik
https://www.ekatte.com/област-шумен/община-каолиново/браничево	Каолиново	Шумен	27.091113	43.682733	6094	с	Браничево		branichevo	kaolinovo	shumen
https://www.ekatte.com/област-варна/община-долни-чифлик/рудник	Долни чифлик	Варна	27.772021	42.95053	63197	с	Рудник		rudnik	dolni-chiflik	varna
https://www.ekatte.com/област-видин/община-макреш/вълчек	Макреш	Видин	22.71472	43.785359	12557	с	Вълчек		vlchek	makresh	vidin
https://www.ekatte.com/област-разград/община-лозница/синя-вода	Лозница	Разград	26.577032	43.403302	66593	с	Синя вода		sinja-voda	loznitsa	razgrad
https://www.ekatte.com/област-варна/община-долни-чифлик/пчелник	Долни чифлик	Варна	27.669455	43.012722	58921	с	Пчелник		pchelnik	dolni-chiflik	varna
https://www.ekatte.com/област-благоевград/община-гоце-делчев/лъжница	Гоце Делчев	Благоевград	23.677042	41.619104	44416	с	Лъжница		lzhnitsa	gotse-delchev	blagoevgrad
https://www.ekatte.com/област-кюстендил/община-невестино/лиляч	Невестино	Кюстендил	22.865885	42.291761	43709	с	Лиляч		liljach	nevestino	kjustendil
https://www.ekatte.com/област-габрово/община-трявна/маневци	Трявна	Габрово	25.554061	42.865285	47072	с	Маневци		manevtsi	trjavna	gabrovo
https://www.ekatte.com/област-смолян/община-доспат/бръщен	Доспат	Смолян	24.092486	41.55906	6700	с	Бръщен		brschen	dospat	smoljan
https://www.ekatte.com/област-смолян/община-смолян/мугла	Смолян	Смолян	24.492651	41.615703	49285	с	Мугла		mugla	smoljan	smoljan
https://www.ekatte.com/област-кърджали/община-кирково/мъглене	Кирково	Кърджали	25.252951	41.412473	49480	с	Мъглене		mglene	kirkovo	krdzhali
https://www.ekatte.com/област-пазарджик/община-брацигово/исперихово	Брацигово	Пазарджик	24.42917	42.08536	32888	с	Исперихово		isperihovo	bratsigovo	pazardzhik
https://www.ekatte.com/област-шумен/община-шумен/царев-брод	Шумен	Шумен	27.01053	43.329038	78104	с	Царев брод		tsarev-brod	shumen	shumen
https://www.ekatte.com/област-велико-търново/община-елена/шубеци	Елена	Велико Търново	25.871879	42.879003	83452	с	Шубеци		shubetsi	elena	veliko-trnovo
https://www.ekatte.com/област-велико-търново/община-елена/дуковци	Елена	Велико Търново	25.836801	42.879695	24027	с	Дуковци		dukovtsi	elena	veliko-trnovo
https://www.ekatte.com/област-варна/община-ветрино/млада-гвардия	Ветрино	Варна	27.36317	43.290456	48653	с	Млада гвардия		mlada-gvardija	vetrino	varna
https://www.ekatte.com/област-сливен/община-сливен/бинкос	Сливен	Сливен	26.09704	42.648571	4114	с	Бинкос		binkos	sliven	sliven
https://www.ekatte.com/област-кърджали/община-кърджали/лъвово	Кърджали	Кърджали	25.333854	41.567784	44361	с	Лъвово		lvovo	krdzhali	krdzhali
https://www.ekatte.com/област-пазарджик/община-пазарджик/братаница	Пазарджик	Пазарджик	24.220072	42.165825	6149	с	Братаница		bratanitsa	pazardzhik	pazardzhik
https://www.ekatte.com/област-монтана/община-монтана/доктор-йосифово	Монтана	Монтана	23.147614	43.506553	21840	с	Доктор Йосифово		doktor-josifovo	montana	montana
https://www.ekatte.com/област-шумен/община-шумен/новосел	Шумен	Шумен	26.811398	43.287493	52132	с	Новосел		novosel	shumen	shumen
https://www.ekatte.com/област-пловдив/община-родопи/брестовица	Родопи	Пловдив	24.591914	42.08361	6505	с	Брестовица		brestovitsa	rodopi	plovdiv
https://www.ekatte.com/област-монтана/община-берковица/замфирово	Берковица	Монтана	23.242386	43.296246	30301	с	Замфирово		zamfirovo	berkovitsa	montana
https://www.ekatte.com/област-враца/община-бяла-слатина/драшан	Бяла Слатина	Враца	23.91557	43.254492	23618	с	Драшан		drashan	bjala-slatina	vratsa
https://www.ekatte.com/област-кюстендил/община-дупница/кременик	Дупница	Кюстендил	23.070045	42.363518	39640	с	Кременик		kremenik	dupnitsa	kjustendil
https://www.ekatte.com/област-перник/община-трън/берайнци	Трън	Перник	22.593832	42.807311	3873	с	Берайнци		berajntsi	trn	pernik
https://www.ekatte.com/област-шумен/община-никола-козлево/каравелово	Никола Козлево	Шумен	27.302534	43.532581	36194	с	Каравелово		karavelovo	nikola-kozlevo	shumen
https://www.ekatte.com/област-кърджали/община-момчилград/върхари	Момчилград	Кърджали	25.379625	41.54334	86030	с	Върхари		vrhari	momchilgrad	krdzhali
https://www.ekatte.com/област-видин/община-белоградчик/боровица	Белоградчик	Видин	22.736561	43.578455	5582	с	Боровица		borovitsa	belogradchik	vidin
https://www.ekatte.com/област-велико-търново/община-елена/николовци	Елена	Велико Търново	25.847671	42.961665	51696	с	Николовци		nikolovtsi	elena	veliko-trnovo
https://www.ekatte.com/област-кюстендил/община-кюстендил/савойски	Кюстендил	Кюстендил	22.645654	42.142787	65047	с	Савойски		savojski	kjustendil	kjustendil
https://www.ekatte.com/област-хасково/община-минерални-бани/винево	Минерални бани	Хасково	25.306764	41.810601	11106	с	Винево		vinevo	mineralni-bani	haskovo
https://www.ekatte.com/област-силистра/община-ситово/любен	Ситово	Силистра	27.044828	43.941648	44495	с	Любен		ljuben	sitovo	silistra
https://www.ekatte.com/област-стара-загора/община-стара-загора/козаревец	Стара Загора	Стара Загора	25.580703	42.219527	37678	с	Козаревец		kozarevets	stara-zagora	stara-zagora
https://www.ekatte.com/област-плевен/община-белене/кулина-вода	Белене	Плевен	25.035881	43.590814	40573	с	Кулина вода		kulina-voda	belene	pleven
https://www.ekatte.com/област-велико-търново/община-велико-търново/дебелец	Велико Търново	Велико Търново	25.620435	43.04335	20242	гр	Дебелец	gr	debelets	veliko-trnovo	veliko-trnovo
https://www.ekatte.com/област-пловдив/община-родопи/храбрино	Родопи	Пловдив	24.647438	42.045393	77373	с	Храбрино		hrabrino	rodopi	plovdiv
https://www.ekatte.com/област-велико-търново/община-елена/палици	Елена	Велико Търново	26.001988	42.919972	55261	с	Палици		palitsi	elena	veliko-trnovo
https://www.ekatte.com/област-перник/община-радомир/дебели-лаг	Радомир	Перник	22.870771	42.460954	20256	с	Дебели лаг		debeli-lag	radomir	pernik
https://www.ekatte.com/област-перник/община-ковачевци/ракиловци	Ковачевци	Перник	22.795504	42.545543	61947	с	Ракиловци		rakilovtsi	kovachevtsi	pernik
https://www.ekatte.com/област-смолян/община-смолян/потока	Смолян	Смолян	24.604163	41.472718	57916	с	Потока		potoka	smoljan	smoljan
https://www.ekatte.com/област-кюстендил/община-кюстендил/лозно	Кюстендил	Кюстендил	22.6539	42.2944	44183	с	Лозно		lozno	kjustendil	kjustendil
https://www.ekatte.com/област-благоевград/община-петрич/чучулигово	Петрич	Благоевград	23.360201	41.403008	81832	с	Чучулигово		chuchuligovo	petrich	blagoevgrad
https://www.ekatte.com/област-благоевград/община-сатовча/сатовча	Сатовча	Благоевград	23.976022	41.619479	65440	с	Сатовча		satovcha	satovcha	blagoevgrad
https://www.ekatte.com/област-благоевград/община-гърмен/дебрен	Гърмен	Благоевград	23.822927	41.581779	20331	с	Дебрен		debren	grmen	blagoevgrad
https://www.ekatte.com/област-благоевград/община-разлог/елешница	Разлог	Благоевград	23.6167	41.8667	27293	с	Елешница		eleshnitsa	razlog	blagoevgrad
https://www.ekatte.com/област-силистра/община-кайнарджа/посев	Кайнарджа	Силистра	27.422491	43.867525	57889	с	Посев		posev	kajnardzha	silistra
https://www.ekatte.com/област-пловдив/община-лъки/здравец	Лъки	Пловдив	24.79908	41.749252	31423	с	Здравец		zdravets	lki	plovdiv
https://www.ekatte.com/област-сливен/община-котел/жеравна	Котел	Сливен	26.459034	42.833043	29283	с	Жеравна		zheravna	kotel	sliven
https://www.ekatte.com/област-велико-търново/община-елена/велювци	Елена	Велико Търново	25.838142	42.969362	10598	с	Велювци		veljuvtsi	elena	veliko-trnovo
https://www.ekatte.com/област-смолян/община-баните/малка-арда	Баните	Смолян	24.930723	41.617397	46406	с	Малка Арда		malka-arda	banite	smoljan
https://www.ekatte.com/област-габрово/община-габрово/семерджиите	Габрово	Габрово	25.392455	42.894153	66161	с	Семерджиите		semerdzhiite	gabrovo	gabrovo
https://www.ekatte.com/област-кърджали/община-кърджали/чеганци	Кърджали	Кърджали	25.296382	41.715841	80248	с	Чеганци		chegantsi	krdzhali	krdzhali
https://www.ekatte.com/област-кърджали/община-крумовград/егрек	Крумовград	Кърджали	25.621201	41.330077	27036	с	Егрек		egrek	krumovgrad	krdzhali
https://www.ekatte.com/област-сливен/община-нова-загора/събрано	Нова Загора	Сливен	25.898112	42.431024	70456	с	Събрано		sbrano	nova-zagora	sliven
https://www.ekatte.com/област-бургас/община-сунгурларе/лозица	Сунгурларе	Бургас	26.779319	42.728885	44149	с	Лозица		lozitsa	sungurlare	burgas
https://www.ekatte.com/област-ямбол/община-тунджа/челник	Тунджа	Ямбол	26.685255	42.398056	80306	с	Челник		chelnik	tundzha	jambol
https://www.ekatte.com/област-смолян/община-смолян/виево	Смолян	Смолян	24.828304	41.640544	11048	с	Виево		vievo	smoljan	smoljan
https://www.ekatte.com/област-кърджали/община-черноочене/йончово	Черноочене	Кърджали	25.203154	41.847563	34117	с	Йончово		jonchovo	chernoochene	krdzhali
https://www.ekatte.com/област-ямбол/община-болярово/ситово	Болярово	Ямбол	26.768741	42.061874	66679	с	Ситово		sitovo	boljarovo	jambol
https://www.ekatte.com/област-кюстендил/община-невестино/неделкова-гращица	Невестино	Кюстендил	22.800728	42.236981	51336	с	Неделкова Гращица		nedelkova-graschitsa	nevestino	kjustendil
https://www.ekatte.com/област-велико-търново/община-елена/бадевци	Елена	Велико Търново	25.750653	42.883837	2169	с	Бадевци		badevtsi	elena	veliko-trnovo
https://www.ekatte.com/област-търговище/община-попово/паламарца	Попово	Търговище	26.1667	43.3833	55213	с	Паламарца		palamartsa	popovo	trgovische
https://www.ekatte.com/област-велико-търново/община-павликени/бутово	Павликени	Велико Търново	25.216414	43.30243	7123	с	Бутово		butovo	pavlikeni	veliko-trnovo
https://www.ekatte.com/област-кърджали/община-ардино/търна	Ардино	Кърджали	25.171402	41.665762	73897	с	Търна		trna	ardino	krdzhali
https://www.ekatte.com/област-хасково/община-димитровград/ябълково	Димитровград	Хасково	25.440521	42.069921	87076	с	Ябълково		jablkovo	dimitrovgrad	haskovo
https://www.ekatte.com/област-хасково/община-стамболово/стамболово	Стамболово	Хасково	25.642793	41.776289	68727	с	Стамболово		stambolovo	stambolovo	haskovo
https://www.ekatte.com/област-видин/община-видин/ботево	Видин	Видин	22.861384	43.836832	5832	с	Ботево		botevo	vidin	vidin
https://www.ekatte.com/област-хасково/община-любимец/васково	Любимец	Хасково	26.198168	41.917209	10286	с	Васково		vaskovo	ljubimets	haskovo
https://www.ekatte.com/област-търговище/община-попово/славяново	Попово	Търговище	26.1833	43.2667	67091	с	Славяново		slavjanovo	popovo	trgovische
https://www.ekatte.com/област-сливен/община-нова-загора/млекарево	Нова Загора	Сливен	26.087951	42.356199	48725	с	Млекарево		mlekarevo	nova-zagora	sliven
https://www.ekatte.com/област-търговище/община-антоново/свободица	Антоново	Търговище	26.184859	43.077078	65855	с	Свободица		svoboditsa	antonovo	trgovische
https://www.ekatte.com/област-варна/община-белослав/разделна	Белослав	Варна	27.635786	43.166356	61741	с	Разделна		razdelna	beloslav	varna
https://www.ekatte.com/област-хасково/община-свиленград/димитровче	Свиленград	Хасково	26.251505	41.814887	21078	с	Димитровче		dimitrovche	svilengrad	haskovo
https://www.ekatte.com/област-хасково/община-маджарово/брусевци	Маджарово	Хасково	25.93552	41.582467	6584	с	Брусевци		brusevtsi	madzharovo	haskovo
https://www.ekatte.com/област-благоевград/община-благоевград/дъбрава	Благоевград	Благоевград	23.131804	42.048388	24367	с	Дъбрава		dbrava	blagoevgrad	blagoevgrad
https://www.ekatte.com/област-смолян/община-смолян/попрелка	Смолян	Смолян	24.636317	41.535545	57710	с	Попрелка		poprelka	smoljan	smoljan
https://www.ekatte.com/област-софия/община-драгоман/летница	Драгоман	София-област	22.929865	42.956867	43484	с	Летница		letnitsa	dragoman	sofija-oblast
https://www.ekatte.com/област-хасково/община-симеоновград/пясъчево	Симеоновград	Хасково	25.863208	42.106304	59210	с	Пясъчево		pjaschevo	simeonovgrad	haskovo
https://www.ekatte.com/област-враца/община-криводол/баурене	Криводол	Враца	23.487044	43.442569	2912	с	Баурене		baurene	krivodol	vratsa
https://www.ekatte.com/област-пловдив/община-карлово/клисура	Карлово	Пловдив	24.449643	42.693066	37277	гр	Клисура	gr	klisura	karlovo	plovdiv
https://www.ekatte.com/област-кърджали/община-джебел/контил	Джебел	Кърджали	25.182615	41.503535	38371	с	Контил		kontil	dzhebel	krdzhali
https://www.ekatte.com/област-софия/община-драгоман/ялботина	Драгоман	София-област	22.834242	42.873506	87343	с	Ялботина		jalbotina	dragoman	sofija-oblast
https://www.ekatte.com/област-велико-търново/община-златарица/чистово	Златарица	Велико Търново	26.072788	43.031812	81428	с	Чистово		chistovo	zlataritsa	veliko-trnovo
https://www.ekatte.com/област-кюстендил/община-кюстендил/мазарачево	Кюстендил	Кюстендил	22.623983	42.349813	46108	с	Мазарачево		mazarachevo	kjustendil	kjustendil
https://www.ekatte.com/област-силистра/община-дулово/прохлада	Дулово	Силистра	27.131375	43.698367	58709	с	Прохлада		prohlada	dulovo	silistra
https://www.ekatte.com/област-видин/община-кула/кула	Кула	Видин	22.5214	43.8878	40525	гр	Кула	gr	kula	kula	vidin
https://www.ekatte.com/област-пазарджик/община-панагюрище/оборище	Панагюрище	Пазарджик	24.0833	42.5167	53103	с	Оборище		oborische	panagjurische	pazardzhik
https://www.ekatte.com/област-софия/община-годеч/комщица	Годеч	София-област	22.994618	43.094621	38186	с	Комщица		komschitsa	godech	sofija-oblast
https://www.ekatte.com/област-враца/община-криводол/криводол	Криводол	Враца	23.475111	43.368257	39846	гр	Криводол	gr	krivodol	krivodol	vratsa
https://www.ekatte.com/област-велико-търново/община-елена/стойчевци	Елена	Велико Търново	25.830165	42.925107	69393	с	Стойчевци		stojchevtsi	elena	veliko-trnovo
https://www.ekatte.com/област-варна/община-бяла/попович	Бяла	Варна	27.794322	42.833975	57635	с	Попович		popovich	bjala	varna
https://www.ekatte.com/област-кърджали/община-кърджали/иванци	Кърджали	Кърджали	25.397431	41.671152	32161	с	Иванци		ivantsi	krdzhali	krdzhali
https://www.ekatte.com/област-перник/община-перник/расник	Перник	Перник	22.9972	42.7017	62219	с	Расник		rasnik	pernik	pernik
https://www.ekatte.com/област-смолян/община-смолян/черешките	Смолян	Смолян	24.590392	41.503251	80604	с	Черешките		chereshkite	smoljan	smoljan
https://www.ekatte.com/област-габрово/община-дряново/нейчовци	Дряново	Габрово	25.448922	42.948271	51439	с	Нейчовци		nejchovtsi	drjanovo	gabrovo
https://www.ekatte.com/област-велико-търново/община-елена/драганосковци	Елена	Велико Търново	25.831375	42.909436	23162	с	Драганосковци		draganoskovtsi	elena	veliko-trnovo
https://www.ekatte.com/област-шумен/община-върбица/божурово	Върбица	Шумен	26.607661	42.994616	5075	с	Божурово		bozhurovo	vrbitsa	shumen
https://www.ekatte.com/област-плевен/община-пордим/одърне	Пордим	Плевен	24.93483	43.340287	53446	с	Одърне		odrne	pordim	pleven
https://www.ekatte.com/област-ямбол/община-стралджа/стралджа	Стралджа	Ямбол	26.689713	42.600227	69660	гр	Стралджа	gr	straldzha	straldzha	jambol
https://www.ekatte.com/област-габрово/община-трявна/йововци	Трявна	Габрово	25.445122	42.803953	34062	с	Йововци		jovovtsi	trjavna	gabrovo
https://www.ekatte.com/област-враца/община-мездра/долна-кремена	Мездра	Враца	23.737906	43.17113	22126	с	Долна Кремена		dolna-kremena	mezdra	vratsa
https://www.ekatte.com/област-русе/община-ветово/ветово	Ветово	Русе	26.263855	43.703291	10803	гр	Ветово	gr	vetovo	vetovo	ruse
https://www.ekatte.com/област-кърджали/община-кирково/могиляне	Кирково	Кърджали	25.231886	41.370729	48845	с	Могиляне		mogiljane	kirkovo	krdzhali
https://www.ekatte.com/област-враца/община-враца/оходен	Враца	Враца	23.714418	43.364248	54482	с	Оходен		ohoden	vratsa	vratsa
https://www.ekatte.com/област-сливен/община-нова-загора/съдиево	Нова Загора	Сливен	26.077172	42.530154	70487	с	Съдиево		sdievo	nova-zagora	sliven
https://www.ekatte.com/област-смолян/община-девин/девин	Девин	Смолян	24.391539	41.742911	20465	гр	Девин	gr	devin	devin	smoljan
https://www.ekatte.com/област-търговище/община-търговище/здравец	Търговище	Търговище	26.490293	43.286024	30644	с	Здравец		zdravets	trgovische	trgovische
https://www.ekatte.com/област-габрово/община-габрово/баланите	Габрово	Габрово	25.370472	42.83192	2347	с	Баланите		balanite	gabrovo	gabrovo
https://www.ekatte.com/област-кърджали/община-черноочене/босилица	Черноочене	Кърджали	25.232288	41.752112	5712	с	Босилица		bosilitsa	chernoochene	krdzhali
https://www.ekatte.com/област-кърджали/община-джебел/черешка	Джебел	Кърджали	25.189567	41.488693	81935	с	Черешка		chereshka	dzhebel	krdzhali
https://www.ekatte.com/област-софия/община-мирково/плъзище	Мирково	София-област	23.954093	42.581341	56842	с	Плъзище		plzische	mirkovo	sofija-oblast
https://www.ekatte.com/област-велико-търново/община-велико-търново/димитровци	Велико Търново	Велико Търново	25.583038	42.949386	21066	с	Димитровци		dimitrovtsi	veliko-trnovo	veliko-trnovo
https://www.ekatte.com/област-стара-загора/община-опан/пъстрен	Опан	Стара Загора	25.750121	42.249912	59166	с	Пъстрен		pstren	opan	stara-zagora
https://www.ekatte.com/област-благоевград/община-благоевград/бистрица	Благоевград	Благоевград	23.180134	42.054772	4217	с	Бистрица		bistritsa	blagoevgrad	blagoevgrad
https://www.ekatte.com/област-софия/община-костинброд/петърч	Костинброд	София-област	23.149496	42.844235	56215	с	Петърч		petrch	kostinbrod	sofija-oblast
https://www.ekatte.com/област-стара-загора/община-гурково/димовци	Гурково	Стара Загора	25.734291	42.673907	21124	с	Димовци		dimovtsi	gurkovo	stara-zagora
https://www.ekatte.com/област-кърджали/община-ардино/млечино	Ардино	Кърджали	25.175894	41.626992	48756	с	Млечино		mlechino	ardino	krdzhali
https://www.ekatte.com/област-стара-загора/община-мъглиж/шаново	Мъглиж	Стара Загора	25.630982	42.55846	83020	с	Шаново		shanovo	mglizh	stara-zagora
https://www.ekatte.com/област-ямбол/община-тунджа/миладиновци	Тунджа	Ямбол	26.339743	42.261714	48101	с	Миладиновци		miladinovtsi	tundzha	jambol
https://www.ekatte.com/област-варна/община-вълчи-дол/метличина	Вълчи дол	Варна	27.502732	43.473892	47874	с	Метличина		metlichina	vlchi-dol	varna
https://www.ekatte.com/област-габрово/община-габрово/солари	Габрово	Габрово	25.312285	42.941238	67996	с	Солари		solari	gabrovo	gabrovo
https://www.ekatte.com/област-враца/община-бяла-слатина/тлачене	Бяла Слатина	Враца	23.847542	43.34189	72521	с	Тлачене		tlachene	bjala-slatina	vratsa
https://www.ekatte.com/област-габрово/община-габрово/поповци	Габрово	Габрово	25.268748	42.909892	57675	с	Поповци		popovtsi	gabrovo	gabrovo
https://www.ekatte.com/област-смолян/община-мадан/крайна	Мадан	Смолян	24.918884	41.480984	39311	с	Крайна		krajna	madan	smoljan
https://www.ekatte.com/област-габрово/община-трявна/големи-станчовци	Трявна	Габрово	25.535506	42.909557	15480	с	Големи Станчовци		golemi-stanchovtsi	trjavna	gabrovo
https://www.ekatte.com/област-пловдив/община-родопи/цалапица	Родопи	Пловдив	24.568278	42.180067	78029	с	Цалапица		tsalapitsa	rodopi	plovdiv
https://www.ekatte.com/област-габрово/община-габрово/пецовци	Габрово	Габрово	25.26172	42.91324	56229	с	Пецовци		petsovtsi	gabrovo	gabrovo
https://www.ekatte.com/област-плевен/община-белене/татари	Белене	Плевен	25.1667	43.5667	72117	с	Татари		tatari	belene	pleven
https://www.ekatte.com/област-кюстендил/община-кочериново/цървище	Кочериново	Кюстендил	22.967639	42.136829	78625	с	Цървище		tsrvische	kocherinovo	kjustendil
https://www.ekatte.com/област-благоевград/община-сандански/виногради	Сандански	Благоевград	23.383807	41.497395	11168	с	Виногради		vinogradi	sandanski	blagoevgrad
https://www.ekatte.com/област-перник/община-брезник/душинци	Брезник	Перник	22.671219	42.705073	24205	с	Душинци		dushintsi	breznik	pernik
https://www.ekatte.com/област-пазарджик/община-велинград/пашови	Велинград	Пазарджик	23.826671	42.042421	55631	с	Пашови		pashovi	velingrad	pazardzhik
https://www.ekatte.com/област-хасково/община-маджарово/малко-брягово	Маджарово	Хасково	25.891315	41.694521	46557	с	Малко Брягово		malko-brjagovo	madzharovo	haskovo
https://www.ekatte.com/област-велико-търново/община-златарица/дълги-припек	Златарица	Велико Търново	26.052359	43.004636	24548	с	Дълги припек		dlgi-pripek	zlataritsa	veliko-trnovo
https://www.ekatte.com/област-габрово/община-трявна/власатили	Трявна	Габрово	25.587268	42.806827	11541	с	Власатили		vlasatili	trjavna	gabrovo
https://www.ekatte.com/област-кюстендил/община-кюстендил/режинци	Кюстендил	Кюстендил	22.556641	42.397884	62428	с	Режинци		rezhintsi	kjustendil	kjustendil
https://www.ekatte.com/област-велико-търново/община-свищов/овча-могила	Свищов	Велико Търново	25.2667	43.4333	53196	с	Овча могила		ovcha-mogila	svischov	veliko-trnovo
https://www.ekatte.com/област-монтана/община-берковица/песочница	Берковица	Монтана	23.204253	43.252643	55930	с	Песочница		pesochnitsa	berkovitsa	montana
https://www.ekatte.com/област-хасково/община-хасково/нова-надежда	Хасково	Хасково	25.721487	42.016748	51891	с	Нова Надежда		nova-nadezhda	haskovo	haskovo
https://www.ekatte.com/област-смолян/община-мадан/миле	Мадан	Смолян	24.991483	41.585199	48146	с	Миле		mile	madan	smoljan
https://www.ekatte.com/област-кърджали/община-кърджали/старо-място	Кърджали	Кърджали	25.298021	41.664295	68984	с	Старо място		staro-mjasto	krdzhali	krdzhali
https://www.ekatte.com/област-хасково/община-димитровград/каснаково	Димитровград	Хасково	25.490426	42.013277	36573	с	Каснаково		kasnakovo	dimitrovgrad	haskovo
https://www.ekatte.com/област-велико-търново/община-свищов/горна-студена	Свищов	Велико Търново	25.351005	43.416979	16393	с	Горна Студена		gorna-studena	svischov	veliko-trnovo
https://www.ekatte.com/област-хасково/община-маджарово/голяма-долина	Маджарово	Хасково	25.863443	41.695605	15698	с	Голяма долина		goljama-dolina	madzharovo	haskovo
https://www.ekatte.com/област-велико-търново/община-стражица/стражица	Стражица	Велико Търново	25.967015	43.230586	69633	гр	Стражица	gr	strazhitsa	strazhitsa	veliko-trnovo
https://www.ekatte.com/област-търговище/община-опака/гърчиново	Опака	Търговище	26.14253	43.508237	18407	с	Гърчиново		grchinovo	opaka	trgovische
https://www.ekatte.com/област-кърджали/община-кирково/крилатица	Кирково	Кърджали	25.344495	41.354897	39877	с	Крилатица		krilatitsa	kirkovo	krdzhali
https://www.ekatte.com/област-враца/община-мездра/крета	Мездра	Враца	23.698725	43.125151	39709	с	Крета		kreta	mezdra	vratsa
https://www.ekatte.com/област-пловдив/община-сопот/анево	Сопот	Пловдив	24.728222	42.654494	480	с	Анево		anevo	sopot	plovdiv
https://www.ekatte.com/област-кърджали/община-ардино/чубрика	Ардино	Кърджали	25.210151	41.590383	81596	с	Чубрика		chubrika	ardino	krdzhali
https://www.ekatte.com/област-софия-столица/община-столична/негован	София-град	София-област	23.404825	42.768998	51250	с	Негован		negovan	sofija-grad	sofija-oblast
https://www.ekatte.com/област-русе/община-бяла/бяла	Бяла	Русе	25.739145	43.45996	7603	гр	Бяла	gr	bjala	bjala	ruse
https://www.ekatte.com/област-добрич/община-генерал-тошево/калина	Генерал Тошево	Добрич	28.200434	43.628038	35393	с	Калина		kalina	general-toshevo	dobrich
https://www.ekatte.com/област-пазарджик/община-пазарджик/дебръщица	Пазарджик	Пазарджик	24.255799	42.105465	20362	с	Дебръщица		debrschitsa	pazardzhik	pazardzhik
https://www.ekatte.com/област-ямбол/община-тунджа/ханово	Тунджа	Ямбол	26.510429	42.391845	77150	с	Ханово		hanovo	tundzha	jambol
https://www.ekatte.com/област-монтана/община-монтана/трифоново	Монтана	Монтана	23.310226	43.371522	73167	с	Трифоново		trifonovo	montana	montana
https://www.ekatte.com/област-софия/община-своге/лакатник	Своге	София-област	23.374286	43.080033	14475	гар	Лакатник	gar	lakatnik	svoge	sofija-oblast
https://www.ekatte.com/област-пазарджик/община-пазарджик/алеко-константиново	Пазарджик	Пазарджик	24.28881	42.145122	254	с	Алеко Константиново		aleko-konstantinovo	pazardzhik	pazardzhik
https://www.ekatte.com/област-смолян/община-златоград/старцево	Златоград	Смолян	25.052957	41.431184	69105	с	Старцево		startsevo	zlatograd	smoljan
https://www.ekatte.com/област-смолян/община-доспат/барутин	Доспат	Смолян	24.186894	41.600858	2779	с	Барутин		barutin	dospat	smoljan
https://www.ekatte.com/област-варна/община-аксаково/яребична	Аксаково	Варна	27.873615	43.299412	87518	с	Яребична		jarebichna	aksakovo	varna
https://www.ekatte.com/област-перник/община-перник/чуйпетлово	Перник	Перник	23.24295	42.516228	81623	с	Чуйпетлово		chujpetlovo	pernik	pernik
https://www.ekatte.com/област-бургас/община-поморие/ахелой	Поморие	Бургас	27.649385	42.646014	833	гр	Ахелой	gr	aheloj	pomorie	burgas
https://www.ekatte.com/област-габрово/община-трявна/горяни	Трявна	Габрово	25.568069	42.833991	17316	с	Горяни		gorjani	trjavna	gabrovo
https://www.ekatte.com/област-кърджали/община-кирково/първица	Кирково	Кърджали	25.364845	41.373897	59063	с	Първица		prvitsa	kirkovo	krdzhali
https://www.ekatte.com/област-добрич/община-крушари/коритен	Крушари	Добрич	27.7561	43.9264	38618	с	Коритен		koriten	krushari	dobrich
https://www.ekatte.com/област-благоевград/община-сандански/петрово	Сандански	Благоевград	23.501864	41.437611	56174	с	Петрово		petrovo	sandanski	blagoevgrad
https://www.ekatte.com/област-пазарджик/община-пазарджик/росен	Пазарджик	Пазарджик	24.364099	42.316415	63032	с	Росен		rosen	pazardzhik	pazardzhik
https://www.ekatte.com/област-кърджали/община-кирково/дружинци	Кирково	Кърджали	25.340113	41.327071	23803	с	Дружинци		druzhintsi	kirkovo	krdzhali
https://www.ekatte.com/област-варна/община-аксаково/радево	Аксаково	Варна	27.730822	43.410024	61306	с	Радево		radevo	aksakovo	varna
https://www.ekatte.com/област-смолян/община-мадан/вранинци	Мадан	Смолян	24.953723	41.512869	12187	с	Вранинци		vranintsi	madan	smoljan
https://www.ekatte.com/област-варна/община-дългопол/величково	Дългопол	Варна	27.444444	43.046601	10495	с	Величково		velichkovo	dlgopol	varna
https://www.ekatte.com/област-бургас/община-руен/листец	Руен	Бургас	27.1333	42.8667	43880	с	Листец		listets	ruen	burgas
https://www.ekatte.com/област-велико-търново/община-велико-търново/плаково	Велико Търново	Велико Търново	25.681621	42.979254	56602	с	Плаково		plakovo	veliko-trnovo	veliko-trnovo
https://www.ekatte.com/област-силистра/община-алфатар/цар-асен	Алфатар	Силистра	27.254377	43.87395	78063	с	Цар Асен		tsar-asen	alfatar	silistra
https://www.ekatte.com/област-хасково/община-ивайловград/долно-луково	Ивайловград	Хасково	26.075865	41.373472	22705	с	Долно Луково		dolno-lukovo	ivajlovgrad	haskovo
https://www.ekatte.com/област-велико-търново/община-велико-търново/въглевци	Велико Търново	Велико Търново	25.649623	42.908014	12396	с	Въглевци		vglevtsi	veliko-trnovo	veliko-trnovo
https://www.ekatte.com/област-ловеч/община-луковит/дерманци	Луковит	Ловеч	24.281943	43.151207	20688	с	Дерманци		dermantsi	lukovit	lovech
https://www.ekatte.com/област-стара-загора/община-казанлък/голямо-дряново	Казанлък	Стара Загора	25.251241	42.66474	15864	с	Голямо Дряново		goljamo-drjanovo	kazanlk	stara-zagora
https://www.ekatte.com/област-кърджали/община-кърджали/ястреб	Кърджали	Кърджали	25.406859	41.750816	87672	с	Ястреб		jastreb	krdzhali	krdzhali
https://www.ekatte.com/област-хасково/община-тополовград/капитан-петко-войвода	Тополовград	Хасково	26.421944	42.073528	24013	с	Капитан Петко войвода		kapitan-petko-vojvoda	topolovgrad	haskovo
https://www.ekatte.com/област-сливен/община-сливен/горно-александрово	Сливен	Сливен	26.635678	42.649198	16688	с	Горно Александрово		gorno-aleksandrovo	sliven	sliven
https://www.ekatte.com/област-софия/община-драгоман/чеканец	Драгоман	София-област	22.804687	42.861377	80265	с	Чеканец		chekanets	dragoman	sofija-oblast
https://www.ekatte.com/област-плевен/община-левски/левски	Левски	Плевен	25.143096	43.361454	43236	гр	Левски	gr	levski	levski	pleven
https://www.ekatte.com/област-плевен/община-плевен/радишево	Плевен	Плевен	24.667817	43.377611	61426	с	Радишево		radishevo	pleven	pleven
https://www.ekatte.com/област-благоевград/община-струмяни/горна-рибница	Струмяни	Благоевград	23.035279	41.64388	16362	с	Горна Рибница		gorna-ribnitsa	strumjani	blagoevgrad
https://www.ekatte.com/област-габрово/община-габрово/трапесковци	Габрово	Габрово	25.421081	42.881277	72998	с	Трапесковци		trapeskovtsi	gabrovo	gabrovo
https://www.ekatte.com/област-габрово/община-габрово/дивеци	Габрово	Габрово	25.276357	42.908383	20969	с	Дивеци		divetsi	gabrovo	gabrovo
https://www.ekatte.com/област-благоевград/община-петрич/долна-крушица	Петрич	Благоевград	22.983951	41.424832	22143	с	Долна Крушица		dolna-krushitsa	petrich	blagoevgrad
https://www.ekatte.com/област-велико-търново/община-велико-търново/миндя	Велико Търново	Велико Търново	25.838267	43.025149	48278	с	Миндя		mindja	veliko-trnovo	veliko-trnovo
https://www.ekatte.com/област-перник/община-трън/бохова	Трън	Перник	22.495277	42.76715	5918	с	Бохова		bohova	trn	pernik
https://www.ekatte.com/област-габрово/община-габрово/гергини	Габрово	Габрово	25.249395	42.88729	14814	с	Гергини		gergini	gabrovo	gabrovo
https://www.ekatte.com/област-хасково/община-харманли/болярски-извор	Харманли	Хасково	25.815979	41.807602	5298	с	Болярски извор		boljarski-izvor	harmanli	haskovo
https://www.ekatte.com/област-софия/община-годеч/голеш	Годеч	София-област	22.94444	43.048856	15572	с	Голеш		golesh	godech	sofija-oblast
https://www.ekatte.com/област-стара-загора/община-братя-даскалови/малък-дол	Братя Даскалови	Стара Загора	25.216198	42.336164	49998	с	Малък дол		malk-dol	bratja-daskalovi	stara-zagora
https://www.ekatte.com/област-разград/община-разград/киченица	Разград	Разград	26.507869	43.603816	37109	с	Киченица		kichenitsa	razgrad	razgrad
https://www.ekatte.com/област-добрич/община-крушари/капитан-димитрово	Крушари	Добрич	27.692556	43.954362	36138	с	Капитан Димитрово		kapitan-dimitrovo	krushari	dobrich
https://www.ekatte.com/област-ямбол/община-болярово/ружица	Болярово	Ямбол	26.878386	42.151961	63272	с	Ружица		ruzhitsa	boljarovo	jambol
https://www.ekatte.com/област-плевен/община-долни-дъбник/петърница	Долни Дъбник	Плевен	24.471526	43.323817	56201	с	Петърница		petrnitsa	dolni-dbnik	pleven
https://www.ekatte.com/област-велико-търново/община-елена/драгановци	Елена	Велико Търново	25.918408	42.87211	23131	с	Драгановци		draganovtsi	elena	veliko-trnovo
https://www.ekatte.com/област-стара-загора/община-стара-загора/пъстрово	Стара Загора	Стара Загора	25.354146	42.433952	59170	с	Пъстрово		pstrovo	stara-zagora	stara-zagora
https://www.ekatte.com/област-велико-търново/община-горна-оряховица/върбица	Горна Оряховица	Велико Търново	25.82388	43.181394	12735	с	Върбица		vrbitsa	gorna-orjahovitsa	veliko-trnovo
https://www.ekatte.com/област-велико-търново/община-велико-търново/пъровци	Велико Търново	Велико Търново	25.600757	42.952369	59121	с	Пъровци		provtsi	veliko-trnovo	veliko-trnovo
https://www.ekatte.com/област-плевен/община-червен-бряг/бресте	Червен бряг	Плевен	23.999677	43.260091	6433	с	Бресте		breste	cherven-brjag	pleven
https://www.ekatte.com/област-варна/община-суворово/калиманци	Суворово	Варна	27.723399	43.277489	35376	с	Калиманци		kalimantsi	suvorovo	varna
https://www.ekatte.com/област-перник/община-трън/лева-река	Трън	Перник	22.576783	42.668551	43195	с	Лева река		leva-reka	trn	pernik
https://www.ekatte.com/област-смолян/община-смолян/гудевица	Смолян	Смолян	24.650065	41.452226	18068	с	Гудевица		gudevitsa	smoljan	smoljan
https://www.ekatte.com/област-благоевград/община-петрич/долна-рибница	Петрич	Благоевград	23.095749	41.448161	22246	с	Долна Рибница		dolna-ribnitsa	petrich	blagoevgrad
https://www.ekatte.com/област-габрово/община-габрово/бойчета	Габрово	Габрово	25.351288	42.797827	7908	с	Бойчета		bojcheta	gabrovo	gabrovo
https://www.ekatte.com/област-габрово/община-габрово/пъртевци	Габрово	Габрово	25.243224	42.849025	59135	с	Пъртевци		prtevtsi	gabrovo	gabrovo
https://www.ekatte.com/област-бургас/община-поморие/дъбник	Поморие	Бургас	27.504293	42.688119	24253	с	Дъбник		dbnik	pomorie	burgas
https://www.ekatte.com/област-кърджали/община-момчилград/чайка	Момчилград	Кърджали	25.559468	41.501843	80087	с	Чайка		chajka	momchilgrad	krdzhali
https://www.ekatte.com/област-враца/община-враца/вировско	Враца	Враца	23.795246	43.299139	11185	с	Вировско		virovsko	vratsa	vratsa
https://www.ekatte.com/област-хасково/община-хасково/александрово	Хасково	Хасково	25.726766	41.982346	326	с	Александрово		aleksandrovo	haskovo	haskovo
https://www.ekatte.com/област-варна/община-дългопол/аспарухово	Дългопол	Варна	27.317913	42.982996	789	с	Аспарухово		asparuhovo	dlgopol	varna
https://www.ekatte.com/област-търговище/община-търговище/разбойна	Търговище	Търговище	26.560387	43.221989	61676	с	Разбойна		razbojna	trgovische	trgovische
https://www.ekatte.com/област-смолян/община-златоград/ерма-река	Златоград	Смолян	24.970238	41.415653	27588	с	Ерма река		erma-reka	zlatograd	smoljan
https://www.ekatte.com/област-смолян/община-рудозем/боево	Рудозем	Смолян	24.840785	41.519888	4861	с	Боево		boevo	rudozem	smoljan
https://www.ekatte.com/област-плевен/община-долна-митрополия/божурица	Долна Митрополия	Плевен	24.595937	43.509676	5013	с	Божурица		bozhuritsa	dolna-mitropolija	pleven
https://www.ekatte.com/област-смолян/община-смолян/могилица	Смолян	Смолян	24.6667	41.5167	48814	с	Могилица		mogilitsa	smoljan	smoljan
https://www.ekatte.com/област-смолян/община-чепеларе/проглед	Чепеларе	Смолян	24.712477	41.676977	58517	с	Проглед		progled	chepelare	smoljan
https://www.ekatte.com/област-бургас/община-несебър/козница	Несебър	Бургас	27.682041	42.875596	37825	с	Козница		koznitsa	nesebr	burgas
https://www.ekatte.com/област-кърджали/община-кирково/върбен	Кирково	Кърджали	25.368869	41.410997	120	с	Върбен		vrben	kirkovo	krdzhali
https://www.ekatte.com/област-софия/община-ихтиман/нейкьовец	Ихтиман	София-област	24.035775	42.433064	51411	с	Нейкьовец		nejkovets	ihtiman	sofija-oblast
https://www.ekatte.com/област-разград/община-лозница/манастирско	Лозница	Разград	26.546099	43.42235	47038	с	Манастирско		manastirsko	loznitsa	razgrad
https://www.ekatte.com/област-кърджали/община-черноочене/паничково	Черноочене	Кърджали	25.15387	41.845685	55395	с	Паничково		panichkovo	chernoochene	krdzhali
https://www.ekatte.com/област-сливен/община-сливен/малко-чочовени	Сливен	Сливен	26.201929	42.652209	46694	с	Малко Чочовени		malko-chochoveni	sliven	sliven
https://www.ekatte.com/област-габрово/община-севлиево/млечево	Севлиево	Габрово	24.915096	42.915443	48742	с	Млечево		mlechevo	sevlievo	gabrovo
https://www.ekatte.com/област-монтана/община-вършец/горна-бела-речка	Вършец	Монтана	23.35667	43.178933	16119	с	Горна Бела речка		gorna-bela-rechka	vrshets	montana
https://www.ekatte.com/област-бургас/община-бургас/изворище	Бургас	Бургас	27.442722	42.656924	32425	с	Изворище		izvorische	burgas	burgas
https://www.ekatte.com/област-хасково/община-минерални-бани/минерални-бани	Минерални бани	Хасково	25.349598	41.934569	48297	с	Минерални бани		mineralni-bani	mineralni-bani	haskovo
https://www.ekatte.com/област-добрич/община-добрич-селска/пчелино	Добрич-селска	Добрич	27.921126	43.495424	58880	с	Пчелино		pchelino	dobrich-selska	dobrich
https://www.ekatte.com/област-благоевград/община-петрич/генерал-тодоров	Петрич	Благоевград	23.286814	41.454869	58390	с	Генерал Тодоров		general-todorov	petrich	blagoevgrad
https://www.ekatte.com/област-търговище/община-търговище/баячево	Търговище	Търговище	26.653617	43.22117	3037	с	Баячево		bajachevo	trgovische	trgovische
https://www.ekatte.com/област-смолян/община-борино/кожари	Борино	Смолян	24.336968	41.543562	37592	с	Кожари		kozhari	borino	smoljan
https://www.ekatte.com/област-велико-търново/община-елена/горни-танчевци	Елена	Велико Търново	25.919941	42.837515	16626	с	Горни Танчевци		gorni-tanchevtsi	elena	veliko-trnovo
https://www.ekatte.com/област-бургас/община-руен/каравельово	Руен	Бургас	27.150539	42.929837	36213	с	Каравельово		karavelovo	ruen	burgas
https://www.ekatte.com/област-смолян/община-неделино/върлино	Неделино	Смолян	25.162083	41.469839	12927	с	Върлино		vrlino	nedelino	smoljan
https://www.ekatte.com/област-търговище/община-антоново/къпинец	Антоново	Търговище	26.14492	43.06664	40871	с	Къпинец		kpinets	antonovo	trgovische
https://www.ekatte.com/област-монтана/община-вършец/стояново	Вършец	Монтана	23.340764	43.254422	69537	с	Стояново		stojanovo	vrshets	montana
https://www.ekatte.com/област-ямбол/община-елхово/жребино	Елхово	Ямбол	26.706367	42.243651	29516	с	Жребино		zhrebino	elhovo	jambol
https://www.ekatte.com/област-хасково/община-маджарово/бориславци	Маджарово	Хасково	25.925295	41.659919	5503	с	Бориславци		borislavtsi	madzharovo	haskovo
https://www.ekatte.com/област-пловдив/община-марица/калековец	Марица	Пловдив	24.823729	42.236238	35300	с	Калековец		kalekovets	maritsa	plovdiv
https://www.ekatte.com/област-хасково/община-маджарово/румелия	Маджарово	Хасково	25.784891	41.674161	63313	с	Румелия		rumelija	madzharovo	haskovo
https://www.ekatte.com/област-велико-търново/община-велико-търново/долен-еневец	Велико Търново	Велико Търново	25.566184	42.934409	21899	с	Долен Еневец		dolen-enevets	veliko-trnovo	veliko-trnovo
https://www.ekatte.com/област-смолян/община-смолян/гоздевица	Смолян	Смолян	24.658003	41.453136	15343	с	Гоздевица		gozdevitsa	smoljan	smoljan
https://www.ekatte.com/област-велико-търново/община-елена/папратлива	Елена	Велико Търново	25.845878	42.84944	55442	с	Папратлива		papratliva	elena	veliko-trnovo
https://www.ekatte.com/област-шумен/община-шумен/вехтово	Шумен	Шумен	27.0833	43.1667	10923	с	Вехтово		vehtovo	shumen	shumen
https://www.ekatte.com/област-кърджали/община-кърджали/жинзифово	Кърджали	Кърджали	25.485358	41.663522	29407	с	Жинзифово		zhinzifovo	krdzhali	krdzhali
https://www.ekatte.com/област-софия/община-ихтиман/черньово	Ихтиман	София-област	23.762015	42.412805	81253	с	Черньово		chernovo	ihtiman	sofija-oblast
https://www.ekatte.com/област-бургас/община-карнобат/крумово-градище	Карнобат	Бургас	26.928765	42.610603	40021	с	Крумово градище		krumovo-gradische	karnobat	burgas
https://www.ekatte.com/област-русе/община-ветово/смирненски	Ветово	Русе	26.29915	43.764297	67578	с	Смирненски		smirnenski	vetovo	ruse
https://www.ekatte.com/област-стара-загора/община-стара-загора/ракитница	Стара Загора	Стара Загора	25.514532	42.339287	61995	с	Ракитница		rakitnitsa	stara-zagora	stara-zagora
https://www.ekatte.com/област-шумен/община-нови-пазар/сечище	Нови пазар	Шумен	27.267711	43.408887	66353	с	Сечище		sechische	novi-pazar	shumen
https://www.ekatte.com/област-бургас/община-бургас/твърдица	Бургас	Бургас	27.457844	42.410087	72151	с	Твърдица		tvrditsa	burgas	burgas
https://www.ekatte.com/област-велико-търново/община-елена/марафелци	Елена	Велико Търново	25.845106	42.943807	47158	с	Марафелци		marafeltsi	elena	veliko-trnovo
https://www.ekatte.com/област-добрич/община-балчик/балчик	Балчик	Добрич	28.161719	43.426905	2508	гр	Балчик	gr	balchik	balchik	dobrich
https://www.ekatte.com/област-бургас/община-карнобат/деветак	Карнобат	Бургас	26.82387	42.574614	20417	с	Деветак		devetak	karnobat	burgas
https://www.ekatte.com/област-плевен/община-белене/белене	Белене	Плевен	25.124636	43.644509	3366	гр	Белене	gr	belene	belene	pleven
https://www.ekatte.com/област-благоевград/община-сандански/лешница	Сандански	Благоевград	23.287859	41.534339	43565	с	Лешница		leshnitsa	sandanski	blagoevgrad
https://www.ekatte.com/област-ловеч/община-луковит/петревене	Луковит	Ловеч	24.148543	43.157262	56099	с	Петревене		petrevene	lukovit	lovech
https://www.ekatte.com/област-варна/община-ветрино/белоградец	Ветрино	Варна	27.329246	43.352251	3602	с	Белоградец		belogradets	vetrino	varna
https://www.ekatte.com/област-благоевград/община-петрич/чуричени	Петрич	Благоевград	23.126295	41.455864	81791	с	Чуричени		churicheni	petrich	blagoevgrad
https://www.ekatte.com/област-русе/община-русе/мартен	Русе	Русе	26.074281	43.90462	47336	гр	Мартен	gr	marten	ruse	ruse
https://www.ekatte.com/област-монтана/община-чипровци/горна-ковачица	Чипровци	Монтана	23.002971	43.413334	16239	с	Горна Ковачица		gorna-kovachitsa	chiprovtsi	montana
https://www.ekatte.com/област-варна/община-долни-чифлик/ново-оряхово	Долни чифлик	Варна	27.836656	42.986751	52115	с	Ново Оряхово		novo-orjahovo	dolni-chiflik	varna
https://www.ekatte.com/област-ловеч/община-луковит/дъбен	Луковит	Ловеч	24.215409	43.131669	24236	с	Дъбен		dben	lukovit	lovech
https://www.ekatte.com/област-добрич/община-крушари/огняново	Крушари	Добрич	27.661483	43.905899	53357	с	Огняново		ognjanovo	krushari	dobrich
https://www.ekatte.com/област-силистра/община-тутракан/бреница	Тутракан	Силистра	26.615943	43.891055	6389	с	Бреница		brenitsa	tutrakan	silistra
https://www.ekatte.com/област-габрово/община-дряново/славейково	Дряново	Габрово	25.364826	42.995212	66977	с	Славейково		slavejkovo	drjanovo	gabrovo
https://www.ekatte.com/област-кърджали/община-момчилград/горско-дюлево	Момчилград	Кърджали	25.410357	41.455747	17186	с	Горско Дюлево		gorsko-djulevo	momchilgrad	krdzhali
https://www.ekatte.com/област-софия-столица/община-столична/банкя	София-град	София-област	23.146967	42.707402	2659	гр	Банкя	gr	bankja	sofija-grad	sofija-oblast
https://www.ekatte.com/област-кърджали/община-черноочене/минзухар	Черноочене	Кърджали	25.3867	41.771031	48307	с	Минзухар		minzuhar	chernoochene	krdzhali
https://www.ekatte.com/област-добрич/община-добрич-селска/дебрене	Добрич-селска	Добрич	27.861407	43.38778	20359	с	Дебрене		debrene	dobrich-selska	dobrich
https://www.ekatte.com/област-бургас/община-поморие/порой	Поморие	Бургас	27.552208	42.749789	57790	с	Порой		poroj	pomorie	burgas
https://www.ekatte.com/област-пловдив/община-карлово/богдан	Карлово	Пловдив	24.646861	42.643668	4563	с	Богдан		bogdan	karlovo	plovdiv
https://www.ekatte.com/област-бургас/община-несебър/паницово	Несебър	Бургас	27.663327	42.851536	55350	с	Паницово		panitsovo	nesebr	burgas
https://www.ekatte.com/област-велико-търново/община-велико-търново/самсиите	Велико Търново	Велико Търново	25.6	42.816667	65262	с	Самсиите		samsiite	veliko-trnovo	veliko-trnovo
https://www.ekatte.com/област-търговище/община-попово/манастирица	Попово	Търговище	26.072433	43.254735	47007	с	Манастирица		manastiritsa	popovo	trgovische
https://www.ekatte.com/област-благоевград/община-разлог/годлево	Разлог	Благоевград	23.478428	41.929229	15326	с	Годлево		godlevo	razlog	blagoevgrad
https://www.ekatte.com/област-велико-търново/община-велико-търново/русковци	Велико Търново	Велико Търново	25.643441	42.836848	63464	с	Русковци		ruskovtsi	veliko-trnovo	veliko-trnovo
https://www.ekatte.com/област-пазарджик/община-брацигово/бяга	Брацигово	Пазарджик	24.37627	42.065519	7586	с	Бяга		bjaga	bratsigovo	pazardzhik
https://www.ekatte.com/област-хасково/община-тополовград/доброселец	Тополовград	Хасково	26.315055	42.146698	21659	с	Доброселец		dobroselets	topolovgrad	haskovo
https://www.ekatte.com/област-хасково/община-свиленград/свиленград	Свиленград	Хасково	26.201943	41.765488	65677	гр	Свиленград	gr	svilengrad	svilengrad	haskovo
https://www.ekatte.com/област-кърджали/община-крумовград/крумовград	Крумовград	Кърджали	25.65531	41.471294	39970	гр	Крумовград	gr	krumovgrad	krumovgrad	krdzhali
https://www.ekatte.com/област-монтана/община-бойчиновци/владимирово	Бойчиновци	Монтана	23.395027	43.533695	11418	с	Владимирово		vladimirovo	bojchinovtsi	montana
https://www.ekatte.com/област-пазарджик/община-пазарджик/црънча	Пазарджик	Пазарджик	24.226669	42.111618	78570	с	Црънча		tsrncha	pazardzhik	pazardzhik
https://www.ekatte.com/област-шумен/община-шумен/радко-димитриево	Шумен	Шумен	27.003974	43.187373	61443	с	Радко Димитриево		radko-dimitrievo	shumen	shumen
https://www.ekatte.com/област-габрово/община-габрово/орловци	Габрово	Габрово	25.368664	42.886009	53948	с	Орловци		orlovtsi	gabrovo	gabrovo
https://www.ekatte.com/област-смолян/община-смолян/кремене	Смолян	Смолян	24.627256	41.536993	39637	с	Кремене		kremene	smoljan	smoljan
https://www.ekatte.com/област-търговище/община-търговище/давидово	Търговище	Търговище	26.561723	43.288724	20050	с	Давидово		davidovo	trgovische	trgovische
https://www.ekatte.com/област-ямбол/община-болярово/шарково	Болярово	Ямбол	26.818975	42.053621	83051	с	Шарково		sharkovo	boljarovo	jambol
https://www.ekatte.com/област-габрово/община-габрово/гледаци	Габрово	Габрово	25.272152	42.911608	15059	с	Гледаци		gledatsi	gabrovo	gabrovo
https://www.ekatte.com/област-бургас/община-сунгурларе/босилково	Сунгурларе	Бургас	27.010915	42.821952	5726	с	Босилково		bosilkovo	sungurlare	burgas
https://www.ekatte.com/област-сливен/община-нова-загора/дядово	Нова Загора	Сливен	26.017907	42.435263	24760	с	Дядово		djadovo	nova-zagora	sliven
https://www.ekatte.com/област-пловдив/община-калояново/песнопой	Калояново	Пловдив	24.806983	42.484818	55926	с	Песнопой		pesnopoj	kalojanovo	plovdiv
https://www.ekatte.com/област-пловдив/община-родопи/устина	Родопи	Пловдив	24.519441	42.039863	75188	с	Устина		ustina	rodopi	plovdiv
https://www.ekatte.com/област-стара-загора/община-павел-баня/турия	Павел баня	Стара Загора	25.186659	42.57233	73451	с	Турия		turija	pavel-banja	stara-zagora
https://www.ekatte.com/област-смолян/община-мадан/равно-нивище	Мадан	Смолян	24.957467	41.495351	61234	с	Равно нивище		ravno-nivische	madan	smoljan
https://www.ekatte.com/област-софия/община-годеч/ропот	Годеч	София-област	22.98359	43.038253	63001	с	Ропот		ropot	godech	sofija-oblast
https://www.ekatte.com/област-благоевград/община-гърмен/осиково	Гърмен	Благоевград	23.777023	41.69598	54184	с	Осиково		osikovo	grmen	blagoevgrad
https://www.ekatte.com/област-кърджали/община-крумовград/кандилка	Крумовград	Кърджали	25.586133	41.417487	36021	с	Кандилка		kandilka	krumovgrad	krdzhali
https://www.ekatte.com/област-сливен/община-сливен/въглен	Сливен	Сливен	26.227909	42.750696	12414	с	Въглен		vglen	sliven	sliven
https://www.ekatte.com/област-враца/община-враца/паволче	Враца	Враца	23.601794	43.154061	55070	с	Паволче		pavolche	vratsa	vratsa
https://www.ekatte.com/област-пазарджик/община-пазарджик/паталеница	Пазарджик	Пазарджик	24.20498	42.12336	55556	с	Паталеница		patalenitsa	pazardzhik	pazardzhik
https://www.ekatte.com/област-русе/община-бяла/копривец	Бяла	Русе	25.879674	43.409018	38529	с	Копривец		koprivets	bjala	ruse
https://www.ekatte.com/област-варна/община-аксаково/генерал-кантарджиево	Аксаково	Варна	27.982163	43.355788	14653	с	Генерал Кантарджиево		general-kantardzhievo	aksakovo	varna
https://www.ekatte.com/област-добрич/община-крушари/телериг	Крушари	Добрич	27.668368	43.841602	72196	с	Телериг		telerig	krushari	dobrich
https://www.ekatte.com/област-кърджали/община-джебел/рът	Джебел	Кърджали	25.32061	41.551708	63611	с	Рът		rt	dzhebel	krdzhali
https://www.ekatte.com/област-монтана/община-медковец/медковец	Медковец	Монтана	23.174802	43.628116	47593	с	Медковец		medkovets	medkovets	montana
https://www.ekatte.com/област-бургас/община-айтос/карагеоргиево	Айтос	Бургас	27.185977	42.735321	36227	с	Карагеоргиево		karageorgievo	ajtos	burgas
https://www.ekatte.com/област-софия/община-самоков/ново-село	Самоков	София-област	23.635011	42.392093	52249	с	Ново село		novo-selo	samokov	sofija-oblast
https://www.ekatte.com/област-добрич/община-тервел/кочмар	Тервел	Добрич	27.451112	43.68864	39127	с	Кочмар		kochmar	tervel	dobrich
https://www.ekatte.com/област-сливен/община-котел/братан	Котел	Сливен	26.341598	42.985918	6135	с	Братан		bratan	kotel	sliven
https://www.ekatte.com/област-кърджали/община-ардино/искра	Ардино	Кърджали	25.162569	41.629061	32946	с	Искра		iskra	ardino	krdzhali
https://www.ekatte.com/област-стара-загора/община-опан/княжевско	Опан	Стара Загора	25.791618	42.212574	61791	с	Княжевско		knjazhevsko	opan	stara-zagora
https://www.ekatte.com/област-хасково/община-хасково/момино	Хасково	Хасково	25.729412	41.850616	48934	с	Момино		momino	haskovo	haskovo
https://www.ekatte.com/област-кърджали/община-кирково/шопци	Кирково	Кърджали	25.380903	41.382396	83449	с	Шопци		shoptsi	kirkovo	krdzhali
https://www.ekatte.com/област-велико-търново/община-елена/тънки-рът	Елена	Велико Търново	25.996537	42.995391	73568	с	Тънки рът		tnki-rt	elena	veliko-trnovo
https://www.ekatte.com/област-видин/община-видин/долни-бошняк	Видин	Видин	22.617725	44.004893	22318	с	Долни Бошняк		dolni-boshnjak	vidin	vidin
https://www.ekatte.com/област-смолян/община-девин/гьоврен	Девин	Смолян	24.374854	41.662994	18424	с	Гьоврен		govren	devin	smoljan
https://www.ekatte.com/област-благоевград/община-белица/черешово	Белица	Благоевград	23.708561	41.949107	80649	с	Черешово		chereshovo	belitsa	blagoevgrad
https://www.ekatte.com/област-враца/община-роман/струпец	Роман	Враца	23.89472	43.126619	69972	с	Струпец		strupets	roman	vratsa
https://www.ekatte.com/област-хасково/община-хасково/хасково	Хасково	Хасково	25.555446	41.934437	77195	гр	Хасково	gr	haskovo	haskovo	haskovo
https://www.ekatte.com/област-варна/община-провадия/венчан	Провадия	Варна	27.388532	43.235233	10663	с	Венчан		venchan	provadija	varna
https://www.ekatte.com/област-кюстендил/община-трекляно/брест	Трекляно	Кюстендил	22.607454	42.460114	6392	с	Брест		brest	trekljano	kjustendil
https://www.ekatte.com/област-бургас/община-сунгурларе/дъбовица	Сунгурларе	Бургас	26.629483	42.808203	83137	с	Дъбовица		dbovitsa	sungurlare	burgas
https://www.ekatte.com/област-монтана/община-берковица/котеновци	Берковица	Монтана	23.071146	43.285099	39044	с	Котеновци		kotenovtsi	berkovitsa	montana
https://www.ekatte.com/област-смолян/община-смолян/бориково	Смолян	Смолян	24.614209	41.492698	5414	с	Бориково		borikovo	smoljan	smoljan
https://www.ekatte.com/област-добрич/община-балчик/карвуна	Балчик	Добрич	28.019895	43.474103	36453	с	Карвуна		karvuna	balchik	dobrich
https://www.ekatte.com/област-плевен/община-левски/стежерово	Левски	Плевен	25.149563	43.503037	69153	с	Стежерово		stezherovo	levski	pleven
https://www.ekatte.com/област-русе/община-иваново/сваленик	Иваново	Русе	26.140324	43.580769	65509	с	Сваленик		svalenik	ivanovo	ruse
https://www.ekatte.com/област-хасково/община-ивайловград/орешино	Ивайловград	Хасково	26.091277	41.456946	53789	с	Орешино		oreshino	ivajlovgrad	haskovo
https://www.ekatte.com/област-пловдив/община-брезово/върбен	Брезово	Пловдив	24.966143	42.41891	12680	с	Върбен		vrben	brezovo	plovdiv
https://www.ekatte.com/област-велико-търново/община-елена/мирчовци	Елена	Велико Търново	25.821786	42.885296	48430	с	Мирчовци		mirchovtsi	elena	veliko-trnovo
https://www.ekatte.com/област-монтана/община-монтана/войници	Монтана	Монтана	23.172784	43.449388	11939	с	Войници		vojnitsi	montana	montana
https://www.ekatte.com/област-благоевград/община-струмяни/никудин	Струмяни	Благоевград	23.04391	41.566538	51737	с	Никудин		nikudin	strumjani	blagoevgrad
https://www.ekatte.com/област-велико-търново/община-златарица/рекичка	Златарица	Велико Търново	26.038905	43.015414	62476	с	Рекичка		rekichka	zlataritsa	veliko-trnovo
https://www.ekatte.com/област-пазарджик/община-пазарджик/драгор	Пазарджик	Пазарджик	24.299391	42.229328	23457	с	Драгор		dragor	pazardzhik	pazardzhik
https://www.ekatte.com/област-видин/община-димово/бела	Димово	Видин	22.710037	43.709272	3263	с	Бела		bela	dimovo	vidin
https://www.ekatte.com/област-варна/община-бяла/самотино	Бяла	Варна	27.861907	42.940098	65259	с	Самотино		samotino	bjala	varna
https://www.ekatte.com/област-кюстендил/община-невестино/пастух	Невестино	Кюстендил	22.903105	42.204832	55542	с	Пастух		pastuh	nevestino	kjustendil
https://www.ekatte.com/област-благоевград/община-хаджидимово/гайтаниново	Хаджидимово	Благоевград	23.71424	41.451458	14341	с	Гайтаниново		gajtaninovo	hadzhidimovo	blagoevgrad
https://www.ekatte.com/област-сливен/община-сливен/божевци	Сливен	Сливен	26.134892	42.865887	4947	с	Божевци		bozhevtsi	sliven	sliven
https://www.ekatte.com/област-разград/община-исперих/малко-йонково	Исперих	Разград	26.723017	43.6243	50512	с	Малко Йонково		malko-jonkovo	isperih	razgrad
https://www.ekatte.com/област-враца/община-козлодуй/хърлец	Козлодуй	Враца	23.830237	43.707008	77548	с	Хърлец		hrlets	kozloduj	vratsa
https://www.ekatte.com/област-бургас/община-сунгурларе/везенково	Сунгурларе	Бургас	26.706159	42.853414	10327	с	Везенково		vezenkovo	sungurlare	burgas
https://www.ekatte.com/област-габрово/община-трявна/гайдари	Трявна	Габрово	25.589397	42.800844	14310	с	Гайдари		gajdari	trjavna	gabrovo
https://www.ekatte.com/област-благоевград/община-гоце-делчев/корница	Гоце Делчев	Благоевград	23.677244	41.640036	38666	с	Корница		kornitsa	gotse-delchev	blagoevgrad
https://www.ekatte.com/област-варна/община-провадия/черноок	Провадия	Варна	27.217661	43.136058	81195	с	Черноок		chernook	provadija	varna
https://www.ekatte.com/област-габрово/община-габрово/пенковци	Габрово	Габрово	25.127163	42.906411	55796	с	Пенковци		penkovtsi	gabrovo	gabrovo
https://www.ekatte.com/област-враца/община-роман/хубавене	Роман	Враца	23.937846	43.105026	77493	с	Хубавене		hubavene	roman	vratsa
https://www.ekatte.com/област-плевен/община-левски/българене	Левски	Плевен	25.083281	43.437587	7274	с	Българене		blgarene	levski	pleven
https://www.ekatte.com/област-търговище/община-попово/цар-асен	Попово	Търговище	26.019589	43.419611	78077	с	Цар Асен		tsar-asen	popovo	trgovische
https://www.ekatte.com/област-софия/община-горна-малина/стъргел	Горна Малина	София-област	23.870891	42.747473	70127	с	Стъргел		strgel	gorna-malina	sofija-oblast
https://www.ekatte.com/област-велико-търново/община-горна-оряховица/горски-горен-тръмбеш	Горна Оряховица	Велико Търново	25.840535	43.222117	17107	с	Горски горен Тръмбеш		gorski-goren-trmbesh	gorna-orjahovitsa	veliko-trnovo
https://www.ekatte.com/област-ямбол/община-стралджа/каменец	Стралджа	Ямбол	26.737504	42.338206	35794	с	Каменец		kamenets	straldzha	jambol
https://www.ekatte.com/област-бургас/община-камено/винарско	Камено	Бургас	27.20016	42.604101	11096	с	Винарско		vinarsko	kameno	burgas
https://www.ekatte.com/област-варна/община-аврен/равна-гора	Аврен	Варна	27.804596	43.058443	61128	с	Равна гора		ravna-gora	avren	varna
https://www.ekatte.com/област-добрич/община-шабла/шабла	Шабла	Добрич	28.535233	43.537944	83017	гр	Шабла	gr	shabla	shabla	dobrich
https://www.ekatte.com/област-смолян/община-мадан/букова-поляна	Мадан	Смолян	25.001041	41.528644	6937	с	Букова поляна		bukova-poljana	madan	smoljan
https://www.ekatte.com/област-плевен/община-левски/козар-белене	Левски	Плевен	25.156513	43.409242	37647	с	Козар Белене		kozar-belene	levski	pleven
https://www.ekatte.com/област-велико-търново/община-свищов/ореш	Свищов	Велико Търново	25.2333	43.5833	53672	с	Ореш		oresh	svischov	veliko-trnovo
https://www.ekatte.com/област-перник/община-брезник/конска	Брезник	Перник	22.845797	42.732666	41126	с	Конска		konska	breznik	pernik
https://www.ekatte.com/област-велико-търново/община-стражица/кавлак	Стражица	Велико Търново	26.06572	43.171655	35078	с	Кавлак		kavlak	strazhitsa	veliko-trnovo
https://www.ekatte.com/област-кърджали/община-кърджали/вишеград	Кърджали	Кърджали	25.407786	41.60797	11346	с	Вишеград		vishegrad	krdzhali	krdzhali
https://www.ekatte.com/област-плевен/община-белене/бяла-вода	Белене	Плевен	25.038318	43.630601	7630	с	Бяла вода		bjala-voda	belene	pleven
https://www.ekatte.com/област-плевен/община-никопол/новачене	Никопол	Плевен	24.936844	43.549624	51932	с	Новачене		novachene	nikopol	pleven
https://www.ekatte.com/област-перник/община-перник/студена	Перник	Перник	23.126921	42.545426	70038	с	Студена		studena	pernik	pernik
https://www.ekatte.com/област-кърджали/община-момчилград/друмче	Момчилград	Кърджали	25.493172	41.504066	23830	с	Друмче		drumche	momchilgrad	krdzhali
https://www.ekatte.com/област-смолян/община-баните/траве	Баните	Смолян	25.009704	41.649171	72922	с	Траве		trave	banite	smoljan
https://www.ekatte.com/област-ловеч/община-ловеч/владиня	Ловеч	Ловеч	24.795872	43.295149	11452	с	Владиня		vladinja	lovech	lovech
https://www.ekatte.com/област-хасково/община-ивайловград/черни-рид	Ивайловград	Хасково	25.971663	41.514428	80995	с	Черни рид		cherni-rid	ivajlovgrad	haskovo
https://www.ekatte.com/област-кюстендил/община-кюстендил/коняво	Кюстендил	Кюстендил	22.781358	42.323985	38432	с	Коняво		konjavo	kjustendil	kjustendil
https://www.ekatte.com/област-габрово/община-габрово/камещица	Габрово	Габрово	25.13458	42.907643	35986	с	Камещица		kameschitsa	gabrovo	gabrovo
https://www.ekatte.com/област-видин/община-брегово/тияновци	Брегово	Видин	22.727672	44.075582	72518	с	Тияновци		tijanovtsi	bregovo	vidin
https://www.ekatte.com/област-шумен/община-смядово/желъд	Смядово	Шумен	27.175991	43.047379	29177	с	Желъд		zheld	smjadovo	shumen
https://www.ekatte.com/област-благоевград/община-благоевград/лешко	Благоевград	Благоевград	22.975187	41.932477	43520	с	Лешко		leshko	blagoevgrad	blagoevgrad
https://www.ekatte.com/област-кърджали/община-ардино/латинка	Ардино	Кърджали	25.107866	41.633693	43164	с	Латинка		latinka	ardino	krdzhali
https://www.ekatte.com/област-кърджали/община-кирково/априлци	Кирково	Кърджали	25.371507	41.318301	905	с	Априлци		apriltsi	kirkovo	krdzhali
https://www.ekatte.com/област-варна/община-бяла/горица	Бяла	Варна	27.840089	42.910144	16078	с	Горица		goritsa	bjala	varna
https://www.ekatte.com/област-хасково/община-ивайловград/кобилино	Ивайловград	Хасково	26.000074	41.504003	37410	с	Кобилино		kobilino	ivajlovgrad	haskovo
https://www.ekatte.com/област-разград/община-кубрат/беловец	Кубрат	Разград	26.390248	43.813883	3575	с	Беловец		belovets	kubrat	razgrad
https://www.ekatte.com/област-силистра/община-силистра/бабук	Силистра	Силистра	27.247152	44.01185	2097	с	Бабук		babuk	silistra	silistra
https://www.ekatte.com/област-монтана/община-чипровци/чипровци	Чипровци	Монтана	22.88207	43.384442	81390	гр	Чипровци	gr	chiprovtsi	chiprovtsi	montana
https://www.ekatte.com/област-велико-търново/община-стражица/кесарево	Стражица	Велико Търново	25.975366	43.152516	36782	с	Кесарево		kesarevo	strazhitsa	veliko-trnovo
https://www.ekatte.com/област-хасково/община-ивайловград/ботурче	Ивайловград	Хасково	25.941208	41.380737	5904	с	Ботурче		boturche	ivajlovgrad	haskovo
https://www.ekatte.com/област-кърджали/община-кирково/самокитка	Кирково	Кърджали	25.446035	41.402313	65228	с	Самокитка		samokitka	kirkovo	krdzhali
https://www.ekatte.com/област-кърджали/община-черноочене/средска	Черноочене	Кърджали	25.202535	41.781744	68566	с	Средска		sredska	chernoochene	krdzhali
https://www.ekatte.com/област-кюстендил/община-кюстендил/жеравино	Кюстендил	Кюстендил	22.395568	42.314519	29266	с	Жеравино		zheravino	kjustendil	kjustendil
https://www.ekatte.com/област-шумен/община-никола-козлево/пет-могили	Никола Козлево	Шумен	27.351661	43.564301	56071	с	Пет могили		pet-mogili	nikola-kozlevo	shumen
https://www.ekatte.com/област-варна/община-дългопол/красимир	Дългопол	Варна	27.307633	43.034766	39551	с	Красимир		krasimir	dlgopol	varna
https://www.ekatte.com/област-ямбол/община-тунджа/могила	Тунджа	Ямбол	26.596633	42.501351	48787	с	Могила		mogila	tundzha	jambol
https://www.ekatte.com/област-сливен/община-сливен/калояново	Сливен	Сливен	26.460795	42.656855	35537	с	Калояново		kalojanovo	sliven	sliven
https://www.ekatte.com/област-враца/община-враца/лиляче	Враца	Враца	23.522048	43.321431	43712	с	Лиляче		liljache	vratsa	vratsa
https://www.ekatte.com/област-враца/община-мездра/дърманци	Мездра	Враца	23.720567	43.127045	24668	с	Дърманци		drmantsi	mezdra	vratsa
https://www.ekatte.com/област-търговище/община-търговище/алваново	Търговище	Търговище	26.672904	43.294495	215	с	Алваново		alvanovo	trgovische	trgovische
https://www.ekatte.com/област-добрич/община-шабла/пролез	Шабла	Добрич	28.455008	43.577348	58596	с	Пролез		prolez	shabla	dobrich
https://www.ekatte.com/област-видин/община-видин/бела-рада	Видин	Видин	22.7578	43.9764	3280	с	Бела Рада		bela-rada	vidin	vidin
https://www.ekatte.com/област-перник/община-трън/главановци	Трън	Перник	22.525402	42.816675	14979	с	Главановци		glavanovtsi	trn	pernik
https://www.ekatte.com/област-шумен/община-върбица/бяла-река	Върбица	Шумен	26.778155	42.997559	7692	с	Бяла река		bjala-reka	vrbitsa	shumen
https://www.ekatte.com/област-хасково/община-стамболово/долно-черковище	Стамболово	Хасково	25.739627	41.637444	22887	с	Долно Черковище		dolno-cherkovische	stambolovo	haskovo
https://www.ekatte.com/област-враца/община-криводол/краводер	Криводол	Враца	23.410162	43.303486	39236	с	Краводер		kravoder	krivodol	vratsa
https://www.ekatte.com/област-бургас/община-руен/просеник	Руен	Бургас	27.450888	42.798542	58640	с	Просеник		prosenik	ruen	burgas
https://www.ekatte.com/област-шумен/община-смядово/веселиново	Смядово	Шумен	27.029675	42.983068	10762	с	Веселиново		veselinovo	smjadovo	shumen
https://www.ekatte.com/област-благоевград/община-гоце-делчев/гоце-делчев	Гоце Делчев	Благоевград	23.728272	41.572821	17395	гр	Гоце Делчев	gr	gotse-delchev	gotse-delchev	blagoevgrad
https://www.ekatte.com/област-кюстендил/община-дупница/крайни-дол	Дупница	Кюстендил	23.087472	42.198885	39325	с	Крайни дол		krajni-dol	dupnitsa	kjustendil
https://www.ekatte.com/област-стара-загора/община-раднево/любеново	Раднево	Стара Загора	25.918759	42.197783	44540	с	Любеново		ljubenovo	radnevo	stara-zagora
https://www.ekatte.com/област-кърджали/община-крумовград/едрино	Крумовград	Кърджали	25.666386	41.451523	27680	с	Едрино		edrino	krumovgrad	krdzhali
https://www.ekatte.com/област-габрово/община-дряново/гърня	Дряново	Габрово	25.503278	42.9729	18397	с	Гърня		grnja	drjanovo	gabrovo
https://www.ekatte.com/област-пазарджик/община-ракитово/костандово	Ракитово	Пазарджик	24.112477	42.023246	38844	гр	Костандово	gr	kostandovo	rakitovo	pazardzhik
https://www.ekatte.com/област-добрич/община-генерал-тошево/пчеларово	Генерал Тошево	Добрич	27.918731	43.726433	58832	с	Пчеларово		pchelarovo	general-toshevo	dobrich
https://www.ekatte.com/област-пловдив/община-карлово/столетово	Карлово	Пловдив	24.619933	42.688284	69420	с	Столетово		stoletovo	karlovo	plovdiv
https://www.ekatte.com/област-велико-търново/община-златарица/горна-хаджийска	Златарица	Велико Търново	25.972975	43.03728	16417	с	Горна Хаджийска		gorna-hadzhijska	zlataritsa	veliko-trnovo
https://www.ekatte.com/област-благоевград/община-якоруда/смолево	Якоруда	Благоевград	23.76279	42.01725	32603	с	Смолево		smolevo	jakoruda	blagoevgrad
https://www.ekatte.com/област-благоевград/община-симитли/симитли	Симитли	Благоевград	23.10602	41.889673	66460	гр	Симитли	gr	simitli	simitli	blagoevgrad
https://www.ekatte.com/област-хасково/община-хасково/гарваново	Хасково	Хасково	25.445615	41.966686	14550	с	Гарваново		garvanovo	haskovo	haskovo
https://www.ekatte.com/област-хасково/община-хасково/текето	Хасково	Хасково	25.466707	41.853519	72182	с	Текето		teketo	haskovo	haskovo
https://www.ekatte.com/област-плевен/община-гулянци/шияково	Гулянци	Плевен	24.703997	43.606552	83394	с	Шияково		shijakovo	guljantsi	pleven
https://www.ekatte.com/област-кърджали/община-черноочене/свободиново	Черноочене	Кърджали	25.336171	41.721808	65841	с	Свободиново		svobodinovo	chernoochene	krdzhali
https://www.ekatte.com/област-хасково/община-ивайловград/кондово	Ивайловград	Хасково	26.013543	41.433056	38248	с	Кондово		kondovo	ivajlovgrad	haskovo
https://www.ekatte.com/област-благоевград/община-сандански/кръстилци	Сандански	Благоевград	23.200523	41.551479	40378	с	Кръстилци		krstiltsi	sandanski	blagoevgrad
https://www.ekatte.com/област-пазарджик/община-велинград/кандови	Велинград	Пазарджик	23.829821	42.023275	36035	с	Кандови		kandovi	velingrad	pazardzhik
https://www.ekatte.com/област-софия/община-елин-пелин/петково	Елин Пелин	София-област	23.651374	42.669815	56006	с	Петково		petkovo	elin-pelin	sofija-oblast
https://www.ekatte.com/област-благоевград/община-сатовча/плетена	Сатовча	Благоевград	23.956109	41.640623	56740	с	Плетена		pletena	satovcha	blagoevgrad
https://www.ekatte.com/област-хасково/община-хасково/криво-поле	Хасково	Хасково	25.712493	41.840872	39863	с	Криво поле		krivo-pole	haskovo	haskovo
https://www.ekatte.com/област-плевен/община-искър/староселци	Искър	Плевен	24.2833	43.5333	69095	с	Староселци		staroseltsi	iskr	pleven
https://www.ekatte.com/област-софия/община-сливница/сливница	Сливница	София-област	23.037872	42.851974	67372	гр	Сливница	gr	slivnitsa	slivnitsa	sofija-oblast
https://www.ekatte.com/област-варна/община-суворово/дръндар	Суворово	Варна	27.62964	43.362047	23858	с	Дръндар		drndar	suvorovo	varna
https://www.ekatte.com/област-габрово/община-севлиево/шумата	Севлиево	Габрово	25.073824	42.922094	83497	с	Шумата		shumata	sevlievo	gabrovo
https://www.ekatte.com/област-хасково/община-тополовград/планиново	Тополовград	Хасково	26.375626	41.95693	56664	с	Планиново		planinovo	topolovgrad	haskovo
https://www.ekatte.com/област-габрово/община-трявна/явор	Трявна	Габрово	25.52563	42.851902	87117	с	Явор		javor	trjavna	gabrovo
https://www.ekatte.com/област-велико-търново/община-велико-търново/ресен	Велико Търново	Велико Търново	25.556051	43.200521	62517	с	Ресен		resen	veliko-trnovo	veliko-trnovo
https://www.ekatte.com/област-силистра/община-кайнарджа/войново	Кайнарджа	Силистра	27.441868	43.975134	11990	с	Войново		vojnovo	kajnardzha	silistra
https://www.ekatte.com/област-шумен/община-каолиново/гусла	Каолиново	Шумен	27.055509	43.667021	18188	с	Гусла		gusla	kaolinovo	shumen
https://www.ekatte.com/област-хасково/община-хасково/малево	Хасково	Хасково	25.628014	41.860234	46293	с	Малево		malevo	haskovo	haskovo
https://www.ekatte.com/област-варна/община-аврен/бенковски	Аврен	Варна	27.784374	43.117737	3811	с	Бенковски		benkovski	avren	varna
https://www.ekatte.com/област-шумен/община-хитрино/студеница	Хитрино	Шумен	26.748858	43.452303	70099	с	Студеница		studenitsa	hitrino	shumen
https://www.ekatte.com/област-монтана/община-вършец/горно-озирово	Вършец	Монтана	23.391388	43.216339	16866	с	Горно Озирово		gorno-ozirovo	vrshets	montana
https://www.ekatte.com/област-видин/община-видин/динковица	Видин	Видин	22.778061	44.039359	21186	с	Динковица		dinkovitsa	vidin	vidin
https://www.ekatte.com/област-търговище/община-антоново/китино	Антоново	Търговище	26.375043	43.176192	37040	с	Китино		kitino	antonovo	trgovische
https://www.ekatte.com/област-софия/община-мирково/буново	Мирково	София-област	23.93223	42.715713	7051	с	Буново		bunovo	mirkovo	sofija-oblast
https://www.ekatte.com/област-стара-загора/община-братя-даскалови/оризово	Братя Даскалови	Стара Загора	25.165216	42.209806	53850	с	Оризово		orizovo	bratja-daskalovi	stara-zagora
https://www.ekatte.com/област-добрич/община-добрич-селска/прилеп	Добрич-селска	Добрич	27.911662	43.40057	58339	с	Прилеп		prilep	dobrich-selska	dobrich
https://www.ekatte.com/област-кърджали/община-крумовград/гулийка	Крумовград	Кърджали	25.722357	41.451945	18071	с	Гулийка		gulijka	krumovgrad	krdzhali
https://www.ekatte.com/област-благоевград/община-петрич/рупите	Петрич	Благоевград	23.240785	41.441512	49312	с	Рупите		rupite	petrich	blagoevgrad
https://www.ekatte.com/област-монтана/община-якимово/комощица	Якимово	Монтана	23.310395	43.718705	38159	с	Комощица		komoschitsa	jakimovo	montana
https://www.ekatte.com/област-бургас/община-камено/русокастро	Камено	Бургас	27.186744	42.465483	63478	с	Русокастро		rusokastro	kameno	burgas
https://www.ekatte.com/област-пловдив/община-пловдив/пловдив	Пловдив	Пловдив	24.748809	42.159272	56784	гр	Пловдив	gr	plovdiv	plovdiv	plovdiv
https://www.ekatte.com/област-софия/община-ботевград/елов-дол	Ботевград	София-област	23.771043	43.04288	27334	с	Елов дол		elov-dol	botevgrad	sofija-oblast
https://www.ekatte.com/област-шумен/община-никола-козлево/векилски	Никола Козлево	Шумен	27.382653	43.569229	10330	с	Векилски		vekilski	nikola-kozlevo	shumen
https://www.ekatte.com/област-търговище/община-попово/кардам	Попово	Търговище	26.2833	43.3667	36470	с	Кардам		kardam	popovo	trgovische
https://www.ekatte.com/област-разград/община-исперих/лудогорци	Исперих	Разград	26.766947	43.644455	24116	с	Лудогорци		ludogortsi	isperih	razgrad
https://www.ekatte.com/област-търговище/община-търговище/певец	Търговище	Търговище	26.683313	43.21164	55662	с	Певец		pevets	trgovische	trgovische
https://www.ekatte.com/област-пазарджик/община-пазарджик/главиница	Пазарджик	Пазарджик	24.312941	42.158081	15028	с	Главиница		glavinitsa	pazardzhik	pazardzhik
https://www.ekatte.com/област-стара-загора/община-стара-загора/бенковски	Стара Загора	Стара Загора	25.889376	42.411082	3856	с	Бенковски		benkovski	stara-zagora	stara-zagora
https://www.ekatte.com/област-търговище/община-попово/заветно	Попово	Търговище	26.338962	43.331035	30079	с	Заветно		zavetno	popovo	trgovische
https://www.ekatte.com/област-плевен/община-пордим/каменец	Пордим	Плевен	25.003765	43.339908	35780	с	Каменец		kamenets	pordim	pleven
https://www.ekatte.com/област-кърджали/община-момчилград/прогрес	Момчилград	Кърджали	25.408603	41.495165	59361	с	Прогрес		progres	momchilgrad	krdzhali
https://www.ekatte.com/област-габрово/община-габрово/мрахори	Габрово	Габрово	25.273061	42.914373	49237	с	Мрахори		mrahori	gabrovo	gabrovo
https://www.ekatte.com/област-велико-търново/община-велико-търново/пушево	Велико Търново	Велико Търново	25.475587	43.071844	58791	с	Пушево		pushevo	veliko-trnovo	veliko-trnovo
https://www.ekatte.com/област-ловеч/община-тетевен/тетевен	Тетевен	Ловеч	24.258893	42.918687	72343	гр	Тетевен	gr	teteven	teteven	lovech
https://www.ekatte.com/област-софия/община-своге/лесковдол	Своге	София-област	23.422019	42.969691	43390	с	Лесковдол		leskovdol	svoge	sofija-oblast
https://www.ekatte.com/област-габрово/община-габрово/продановци	Габрово	Габрово	25.284609	42.87897	59300	с	Продановци		prodanovtsi	gabrovo	gabrovo
https://www.ekatte.com/област-плевен/община-плевен/тученица	Плевен	Плевен	24.694129	43.342511	73523	с	Тученица		tuchenitsa	pleven	pleven
https://www.ekatte.com/област-сливен/община-сливен/гавраилово	Сливен	Сливен	26.176977	42.642461	14275	с	Гавраилово		gavrailovo	sliven	sliven
https://www.ekatte.com/област-търговище/община-търговище/твърдинци	Търговище	Търговище	26.773388	43.383918	72148	с	Твърдинци		tvrdintsi	trgovische	trgovische
https://www.ekatte.com/област-ловеч/община-угърчин/голец	Угърчин	Ловеч	24.586222	43.045311	15552	с	Голец		golets	ugrchin	lovech
https://www.ekatte.com/област-габрово/община-габрово/зелено-дърво	Габрово	Габрово	25.269639	42.796858	30764	с	Зелено дърво		zeleno-drvo	gabrovo	gabrovo
https://www.ekatte.com/област-варна/община-аврен/аврен	Аврен	Варна	27.667168	43.112671	84	с	Аврен		avren	avren	varna
https://www.ekatte.com/област-шумен/община-никола-козлево/вълнари	Никола Козлево	Шумен	27.219129	43.599294	12509	с	Вълнари		vlnari	nikola-kozlevo	shumen
https://www.ekatte.com/област-стара-загора/община-чирпан/димитриево	Чирпан	Стара Загора	25.554587	42.190849	21049	с	Димитриево		dimitrievo	chirpan	stara-zagora
https://www.ekatte.com/област-хасково/община-симеоновград/дряново	Симеоновград	Хасково	25.935452	42.080935	23964	с	Дряново		drjanovo	simeonovgrad	haskovo
https://www.ekatte.com/област-софия/община-костенец/долна-василица	Костенец	София-област	23.890502	42.313376	24894	с	Долна Василица		dolna-vasilitsa	kostenets	sofija-oblast
https://www.ekatte.com/област-смолян/община-чепеларе/чепеларе	Чепеларе	Смолян	24.685621	41.724762	80371	гр	Чепеларе	gr	chepelare	chepelare	smoljan
https://www.ekatte.com/област-плевен/община-левски/изгрев	Левски	Плевен	25.043928	43.469365	32531	с	Изгрев		izgrev	levski	pleven
https://www.ekatte.com/област-варна/община-долни-чифлик/нова-шипка	Долни чифлик	Варна	27.525344	43.055135	51963	с	Нова Шипка		nova-shipka	dolni-chiflik	varna
https://www.ekatte.com/област-софия/община-годеч/годеч	Годеч	София-област	23.047232	43.011102	15309	гр	Годеч	gr	godech	godech	sofija-oblast
https://www.ekatte.com/област-сливен/община-сливен/трапоклово	Сливен	Сливен	26.593974	42.64278	73016	с	Трапоклово		trapoklovo	sliven	sliven
https://www.ekatte.com/област-пловдив/община-съединение/церетелево	Съединение	Пловдив	24.629066	42.349512	78392	с	Церетелево		tseretelevo	sedinenie	plovdiv
https://www.ekatte.com/област-кърджали/община-крумовград/калайджиево	Крумовград	Кърджали	25.751297	41.408862	35269	с	Калайджиево		kalajdzhievo	krumovgrad	krdzhali
https://www.ekatte.com/област-габрово/община-трявна/планинци	Трявна	Габрово	25.534097	42.842976	56678	с	Планинци		planintsi	trjavna	gabrovo
https://www.ekatte.com/област-смолян/община-мадан/печинска	Мадан	Смолян	24.967711	41.468938	56246	с	Печинска		pechinska	madan	smoljan
https://www.ekatte.com/област-смолян/община-неделино/тънка-бара	Неделино	Смолян	25.144827	41.473144	73883	с	Тънка бара		tnka-bara	nedelino	smoljan
https://www.ekatte.com/област-шумен/община-каолиново/лятно	Каолиново	Шумен	27.107825	43.550504	44865	с	Лятно		ljatno	kaolinovo	shumen
https://www.ekatte.com/област-ловеч/община-луковит/торос	Луковит	Ловеч	24.280359	43.098732	43058	с	Торос		toros	lukovit	lovech
https://www.ekatte.com/област-враца/община-криводол/ракево	Криводол	Враца	23.439108	43.419547	61933	с	Ракево		rakevo	krivodol	vratsa
https://www.ekatte.com/област-варна/община-аксаково/долище	Аксаково	Варна	27.89185	43.338634	21988	с	Долище		dolische	aksakovo	varna
https://www.ekatte.com/област-стара-загора/община-опан/тракия	Опан	Стара Загора	25.639986	42.199279	72970	с	Тракия		trakija	opan	stara-zagora
https://www.ekatte.com/област-велико-търново/община-елена/томбето	Елена	Велико Търново	26.126455	42.946713	72641	с	Томбето		tombeto	elena	veliko-trnovo
https://www.ekatte.com/област-добрич/община-балчик/соколово	Балчик	Добрич	28.099868	43.473288	67951	с	Соколово		sokolovo	balchik	dobrich
https://www.ekatte.com/област-стара-загора/община-стара-загора/плоска-могила	Стара Загора	Стара Загора	25.818208	42.429561	56825	с	Плоска могила		ploska-mogila	stara-zagora	stara-zagora
https://www.ekatte.com/област-добрич/община-генерал-тошево/присад	Генерал Тошево	Добрич	28.029053	43.671476	58414	с	Присад		prisad	general-toshevo	dobrich
https://www.ekatte.com/област-пловдив/община-сопот/сопот	Сопот	Пловдив	24.754802	42.653889	68080	гр	Сопот	gr	sopot	sopot	plovdiv
https://www.ekatte.com/област-пловдив/община-асеновград/стоево	Асеновград	Пловдив	24.994946	41.982628	69273	с	Стоево		stoevo	asenovgrad	plovdiv
https://www.ekatte.com/област-бургас/община-средец/голямо-буково	Средец	Бургас	27.183907	42.190756	15816	с	Голямо Буково		goljamo-bukovo	sredets	burgas
https://www.ekatte.com/област-габрово/община-габрово/думници	Габрово	Габрово	25.29559	42.907361	24854	с	Думници		dumnitsi	gabrovo	gabrovo
https://www.ekatte.com/област-габрово/община-дряново/пейна	Дряново	Габрово	25.429529	43.002789	55703	с	Пейна		pejna	drjanovo	gabrovo
https://www.ekatte.com/област-сливен/община-котел/боринци	Котел	Сливен	26.212548	42.934825	5480	с	Боринци		borintsi	kotel	sliven
https://www.ekatte.com/област-сливен/община-котел/орлово	Котел	Сливен	26.466577	42.988758	53919	с	Орлово		orlovo	kotel	sliven
https://www.ekatte.com/област-хасково/община-ивайловград/долноселци	Ивайловград	Хасково	25.989199	41.603475	22825	с	Долноселци		dolnoseltsi	ivajlovgrad	haskovo
https://www.ekatte.com/област-кърджали/община-кърджали/сестринско	Кърджали	Кърджали	25.62316	41.715503	66336	с	Сестринско		sestrinsko	krdzhali	krdzhali
https://www.ekatte.com/област-софия/община-своге/заноге	Своге	София-област	23.318769	43.066837	30329	с	Заноге		zanoge	svoge	sofija-oblast
https://www.ekatte.com/област-велико-търново/община-елена/крилювци	Елена	Велико Търново	25.893221	42.873195	39880	с	Крилювци		kriljuvtsi	elena	veliko-trnovo
https://www.ekatte.com/област-кърджали/община-кърджали/бели-пласт	Кърджали	Кърджали	25.428844	41.775761	3499	с	Бели пласт		beli-plast	krdzhali	krdzhali
https://www.ekatte.com/област-смолян/община-мадан/митовска	Мадан	Смолян	24.966014	41.511016	48461	с	Митовска		mitovska	madan	smoljan
https://www.ekatte.com/област-хасково/община-свиленград/сива-река	Свиленград	Хасково	26.072534	41.775243	66370	с	Сива река		siva-reka	svilengrad	haskovo
https://www.ekatte.com/област-ямбол/община-елхово/чернозем	Елхово	Ямбол	26.605999	42.112524	81121	с	Чернозем		chernozem	elhovo	jambol
https://www.ekatte.com/област-разград/община-самуил/кара-михал	Самуил	Разград	26.832145	43.595685	36333	с	Кара Михал		kara-mihal	samuil	razgrad
https://www.ekatte.com/област-хасково/община-харманли/орешец	Харманли	Хасково	25.908158	41.764449	53775	с	Орешец		oreshets	harmanli	haskovo
https://www.ekatte.com/област-плевен/община-плевен/славяново	Плевен	Плевен	24.871502	43.465035	67088	гр	Славяново	gr	slavjanovo	pleven	pleven
https://www.ekatte.com/област-добрич/община-крушари/зимница	Крушари	Добрич	27.619909	43.86452	30884	с	Зимница		zimnitsa	krushari	dobrich
https://www.ekatte.com/област-кюстендил/община-кюстендил/цървендол	Кюстендил	Кюстендил	22.452367	42.282303	78608	с	Цървендол		tsrvendol	kjustendil	kjustendil
https://www.ekatte.com/област-монтана/община-георги-дамяново/копиловци	Георги Дамяново	Монтана	22.9136	43.3311	38488	с	Копиловци		kopilovtsi	georgi-damjanovo	montana
https://www.ekatte.com/област-хасково/община-свиленград/костур	Свиленград	Хасково	26.285997	41.972226	39001	с	Костур		kostur	svilengrad	haskovo
https://www.ekatte.com/област-хасково/община-свиленград/мустрак	Свиленград	Хасково	26.30432	41.865478	49446	с	Мустрак		mustrak	svilengrad	haskovo
https://www.ekatte.com/област-софия/община-ботевград/радотина	Ботевград	София-област	23.641897	42.99277	61594	с	Радотина		radotina	botevgrad	sofija-oblast
https://www.ekatte.com/област-кюстендил/община-дупница/баланово	Дупница	Кюстендил	23.05929	42.250946	2350	с	Баланово		balanovo	dupnitsa	kjustendil
https://www.ekatte.com/област-пловдив/община-лъки/джурково	Лъки	Пловдив	24.815387	41.772637	20883	с	Джурково		dzhurkovo	lki	plovdiv
https://www.ekatte.com/област-пловдив/община-асеновград/узуново	Асеновград	Пловдив	25.09871	41.841766	75254	с	Узуново		uzunovo	asenovgrad	plovdiv
https://www.ekatte.com/област-монтана/община-брусарци/дондуково	Брусарци	Монтана	23.101429	43.712163	22945	с	Дондуково		dondukovo	brusartsi	montana
https://www.ekatte.com/област-монтана/община-монтана/винище	Монтана	Монтана	23.06998	43.48324	11137	с	Винище		vinische	montana	montana
https://www.ekatte.com/област-силистра/община-силистра/ценович	Силистра	Силистра	27.240212	44.030105	78358	с	Ценович		tsenovich	silistra	silistra
https://www.ekatte.com/област-монтана/община-лом/лом	Лом	Монтана	23.238333	43.817838	44238	гр	Лом	gr	lom	lom	montana
https://www.ekatte.com/област-хасково/община-тополовград/присадец	Тополовград	Хасково	26.535872	41.894814	58428	с	Присадец		prisadets	topolovgrad	haskovo
https://www.ekatte.com/област-перник/община-трън/лешниковци	Трън	Перник	22.537276	42.780241	43551	с	Лешниковци		leshnikovtsi	trn	pernik
https://www.ekatte.com/област-хасково/община-симеоновград/троян	Симеоновград	Хасково	25.906155	42.061644	73208	с	Троян		trojan	simeonovgrad	haskovo
https://www.ekatte.com/област-перник/община-трън/докьовци	Трън	Перник	22.596299	42.647835	21854	с	Докьовци		dokovtsi	trn	pernik
https://www.ekatte.com/област-добрич/община-балчик/безводица	Балчик	Добрич	27.972989	43.521909	3174	с	Безводица		bezvoditsa	balchik	dobrich
https://www.ekatte.com/област-ловеч/община-априлци/априлци	Априлци	Ловеч	24.919486	42.840503	52218	гр	Априлци	gr	apriltsi	apriltsi	lovech
https://www.ekatte.com/област-ямбол/община-стралджа/александрово	Стралджа	Ямбол	26.886389	42.322117	343	с	Александрово		aleksandrovo	straldzha	jambol
https://www.ekatte.com/област-плевен/община-червен-бряг/ракита	Червен бряг	Плевен	24.271235	43.270325	61950	с	Ракита		rakita	cherven-brjag	pleven
https://www.ekatte.com/област-габрово/община-трявна/миховци	Трявна	Габрово	25.587311	42.876145	48581	с	Миховци		mihovtsi	trjavna	gabrovo
https://www.ekatte.com/област-габрово/община-габрово/раховци	Габрово	Габрово	25.389739	42.928005	62245	с	Раховци		rahovtsi	gabrovo	gabrovo
https://www.ekatte.com/област-кърджали/община-черноочене/войново	Черноочене	Кърджали	25.177004	41.749726	11987	с	Войново		vojnovo	chernoochene	krdzhali
https://www.ekatte.com/област-стара-загора/община-раднево/трояново	Раднево	Стара Загора	25.953414	42.197609	73225	с	Трояново		trojanovo	radnevo	stara-zagora
https://www.ekatte.com/област-стара-загора/община-раднево/коларово	Раднево	Стара Загора	25.712842	42.336364	38008	с	Коларово		kolarovo	radnevo	stara-zagora
https://www.ekatte.com/област-кюстендил/община-кочериново/фролош	Кочериново	Кюстендил	22.920901	42.133967	76180	с	Фролош		frolosh	kocherinovo	kjustendil
https://www.ekatte.com/област-благоевград/община-сандански/яново	Сандански	Благоевград	23.486189	41.43841	87446	с	Яново		janovo	sandanski	blagoevgrad
https://www.ekatte.com/област-смолян/община-смолян/сърнино	Смолян	Смолян	24.700384	41.4492	70620	с	Сърнино		srnino	smoljan	smoljan
https://www.ekatte.com/област-варна/община-вълчи-дол/искър	Вълчи дол	Варна	27.477794	43.389177	32860	с	Искър		iskr	vlchi-dol	varna
https://www.ekatte.com/област-габрово/община-трявна/кашенци	Трявна	Габрово	25.437313	42.849535	36720	с	Кашенци		kashentsi	trjavna	gabrovo
https://www.ekatte.com/област-бургас/община-камено/полски-извор	Камено	Бургас	27.290034	42.449593	57337	с	Полски извор		polski-izvor	kameno	burgas
https://www.ekatte.com/област-кърджали/община-кърджали/резбарци	Кърджали	Кърджали	25.358473	41.618111	62445	с	Резбарци		rezbartsi	krdzhali	krdzhali
https://www.ekatte.com/област-пловдив/община-асеновград/три-могили	Асеновград	Пловдив	25.067384	41.826636	73147	с	Три могили		tri-mogili	asenovgrad	plovdiv
https://www.ekatte.com/област-габрово/община-дряново/геня	Дряново	Габрово	25.495203	43.00573	14762	с	Геня		genja	drjanovo	gabrovo
https://www.ekatte.com/област-софия/община-ихтиман/борика	Ихтиман	София-област	23.66188	42.486433	5390	с	Борика		borika	ihtiman	sofija-oblast
https://www.ekatte.com/област-смолян/община-доспат/любча	Доспат	Смолян	24.097382	41.620313	44642	с	Любча		ljubcha	dospat	smoljan
https://www.ekatte.com/област-бургас/община-сунгурларе/славянци	Сунгурларе	Бургас	26.731007	42.765144	67115	с	Славянци		slavjantsi	sungurlare	burgas
https://www.ekatte.com/област-велико-търново/община-велико-търново/куцаровци	Велико Търново	Велико Търново	25.722805	42.942616	40779	с	Куцаровци		kutsarovtsi	veliko-trnovo	veliko-trnovo
https://www.ekatte.com/област-софия/община-годеч/туден	Годеч	София-област	23.005196	43.011562	73417	с	Туден		tuden	godech	sofija-oblast
https://www.ekatte.com/област-варна/община-дългопол/комунари	Дългопол	Варна	27.293826	43.009991	38162	с	Комунари		komunari	dlgopol	varna
https://www.ekatte.com/област-добрич/община-каварна/белгун	Каварна	Добрич	28.319728	43.601577	3318	с	Белгун		belgun	kavarna	dobrich
https://www.ekatte.com/област-стара-загора/община-стара-загора/стара-загора	Стара Загора	Стара Загора	25.634464	42.425777	68850	гр	Стара Загора	gr	stara-zagora	stara-zagora	stara-zagora
https://www.ekatte.com/област-благоевград/община-гоце-делчев/баничан	Гоце Делчев	Благоевград	23.737456	41.620696	2600	с	Баничан		banichan	gotse-delchev	blagoevgrad
https://www.ekatte.com/област-русе/община-русе/просена	Русе	Русе	26.169718	43.863174	58637	с	Просена		prosena	ruse	ruse
https://www.ekatte.com/област-габрово/община-трявна/побък	Трявна	Габрово	25.61297	42.907048	56900	с	Побък		pobk	trjavna	gabrovo
https://www.ekatte.com/област-смолян/община-чепеларе/богутево	Чепеларе	Смолян	24.717131	41.758817	4801	с	Богутево		bogutevo	chepelare	smoljan
https://www.ekatte.com/област-варна/община-аксаково/куманово	Аксаково	Варна	27.931611	43.275276	40590	с	Куманово		kumanovo	aksakovo	varna
https://www.ekatte.com/област-перник/община-трън/бутроинци	Трън	Перник	22.74413	42.850768	7137	с	Бутроинци		butrointsi	trn	pernik
https://www.ekatte.com/област-ловеч/община-ловеч/къкрина	Ловеч	Ловеч	24.888887	43.126753	40837	с	Къкрина		kkrina	lovech	lovech
https://www.ekatte.com/област-шумен/община-върбица/менгишево	Върбица	Шумен	26.646044	43.034285	47785	с	Менгишево		mengishevo	vrbitsa	shumen
https://www.ekatte.com/област-благоевград/община-симитли/горно-осеново	Симитли	Благоевград	23.264948	41.992595	16870	с	Горно Осеново		gorno-osenovo	simitli	blagoevgrad
https://www.ekatte.com/област-кърджали/община-кирково/горно-кирково	Кирково	Кърджали	25.348861	41.323897	18558	с	Горно Кирково		gorno-kirkovo	kirkovo	krdzhali
https://www.ekatte.com/област-разград/община-разград/раковски	Разград	Разград	26.465801	43.597864	62089	с	Раковски		rakovski	razgrad	razgrad
https://www.ekatte.com/област-бургас/община-созопол/зидарово	Созопол	Бургас	27.402581	42.327278	30822	с	Зидарово		zidarovo	sozopol	burgas
https://www.ekatte.com/област-сливен/община-нова-загора/омарчево	Нова Загора	Сливен	26.144322	42.457825	53518	с	Омарчево		omarchevo	nova-zagora	sliven
https://www.ekatte.com/област-бургас/община-карнобат/смолник	Карнобат	Бургас	26.928494	42.529764	72080	с	Смолник		smolnik	karnobat	burgas
https://www.ekatte.com/област-смолян/община-доспат/змеица	Доспат	Смолян	24.248403	41.640955	31259	с	Змеица		zmeitsa	dospat	smoljan
https://www.ekatte.com/област-силистра/община-дулово/поройно	Дулово	Силистра	27.11633	43.844	57813	с	Поройно		porojno	dulovo	silistra
https://www.ekatte.com/област-перник/община-радомир/старо-село	Радомир	Перник	23.109604	42.479126	69064	с	Старо село		staro-selo	radomir	pernik
https://www.ekatte.com/област-варна/община-ветрино/невша	Ветрино	Варна	27.299184	43.271223	51233	с	Невша		nevsha	vetrino	varna
https://www.ekatte.com/област-велико-търново/община-елена/габрака	Елена	Велико Търново	25.867015	42.834958	14088	с	Габрака		gabraka	elena	veliko-trnovo
https://www.ekatte.com/област-монтана/община-брусарци/брусарци	Брусарци	Монтана	23.066577	43.662748	6570	гр	Брусарци	gr	brusartsi	brusartsi	montana
https://www.ekatte.com/област-перник/община-радомир/байкалско	Радомир	Перник	22.823933	42.405874	2230	с	Байкалско		bajkalsko	radomir	pernik
https://www.ekatte.com/област-смолян/община-рудозем/сопотот	Рудозем	Смолян	24.856846	41.463119	68093	с	Сопотот		sopotot	rudozem	smoljan
https://www.ekatte.com/област-велико-търново/община-велико-търново/русаля	Велико Търново	Велико Търново	25.45696	43.166534	63416	с	Русаля		rusalja	veliko-trnovo	veliko-trnovo
https://www.ekatte.com/област-варна/община-вълчи-дол/добротич	Вълчи дол	Варна	27.421508	43.394815	21717	с	Добротич		dobrotich	vlchi-dol	varna
https://www.ekatte.com/област-варна/община-провадия/китен	Провадия	Варна	27.315855	43.086386	37037	с	Китен		kiten	provadija	varna
https://www.ekatte.com/област-софия/община-ихтиман/бърдо	Ихтиман	София-област	23.805592	42.568591	7435	с	Бърдо		brdo	ihtiman	sofija-oblast
https://www.ekatte.com/област-хасково/община-ивайловград/ветрушка	Ивайловград	Хасково	25.865703	41.451799	10906	с	Ветрушка		vetrushka	ivajlovgrad	haskovo
https://www.ekatte.com/област-хасково/община-ивайловград/горско	Ивайловград	Хасково	25.837561	41.421017	17169	с	Горско		gorsko	ivajlovgrad	haskovo
https://www.ekatte.com/област-шумен/община-каолиново/долина	Каолиново	Шумен	27.115516	43.537462	21960	с	Долина		dolina	kaolinovo	shumen
https://www.ekatte.com/област-добрич/община-генерал-тошево/пленимир	Генерал Тошево	Добрич	27.981865	43.655512	56736	с	Пленимир		plenimir	general-toshevo	dobrich
https://www.ekatte.com/област-шумен/община-хитрино/висока-поляна	Хитрино	Шумен	26.775643	43.464514	11257	с	Висока поляна		visoka-poljana	hitrino	shumen
https://www.ekatte.com/област-хасково/община-ивайловград/бели-дол	Ивайловград	Хасково	25.955813	41.409566	3424	с	Бели дол		beli-dol	ivajlovgrad	haskovo
https://www.ekatte.com/област-кърджали/община-джебел/подвръх	Джебел	Кърджали	25.332352	41.498291	56976	с	Подвръх		podvrh	dzhebel	krdzhali
https://www.ekatte.com/област-кърджали/община-ардино/стояново	Ардино	Кърджали	25.039804	41.574137	69518	с	Стояново		stojanovo	ardino	krdzhali
https://www.ekatte.com/област-шумен/община-каолиново/пристое	Каолиново	Шумен	27.072682	43.653668	58485	с	Пристое		pristoe	kaolinovo	shumen
https://www.ekatte.com/област-кюстендил/община-кочериново/боровец	Кочериново	Кюстендил	23.024776	42.104156	5565	с	Боровец		borovets	kocherinovo	kjustendil
https://www.ekatte.com/област-стара-загора/община-павел-баня/павел-баня	Павел баня	Стара Загора	25.206165	42.595306	55021	гр	Павел баня	gr	pavel-banja	pavel-banja	stara-zagora
https://www.ekatte.com/област-кърджали/община-черноочене/куцово	Черноочене	Кърджали	25.220065	41.761981	40796	с	Куцово		kutsovo	chernoochene	krdzhali
https://www.ekatte.com/област-ямбол/община-ямбол/ямбол	Ямбол	Ямбол	26.503846	42.484429	87374	гр	Ямбол	gr	jambol	jambol	jambol
https://www.ekatte.com/област-русе/община-русе/семерджиево	Русе	Русе	26.1667	43.7667	66158	с	Семерджиево		semerdzhievo	ruse	ruse
https://www.ekatte.com/област-стара-загора/община-гурково/златирът	Гурково	Стара Загора	25.708066	42.73908	31022	с	Златирът		zlatirt	gurkovo	stara-zagora
https://www.ekatte.com/област-велико-търново/община-стражица/теменуга	Стражица	Велико Търново	26.011757	43.1083	72237	с	Теменуга		temenuga	strazhitsa	veliko-trnovo
https://www.ekatte.com/област-софия/община-божурище/делян	Божурище	София-област	23.005078	42.759775	20626	с	Делян		deljan	bozhurische	sofija-oblast
https://www.ekatte.com/област-благоевград/община-петрич/волно	Петрич	Благоевград	23.026949	41.479391	12036	с	Волно		volno	petrich	blagoevgrad
https://www.ekatte.com/област-шумен/община-нови-пазар/енево	Нови пазар	Шумен	27.217104	43.319719	27471	с	Енево		enevo	novi-pazar	shumen
https://www.ekatte.com/област-кюстендил/община-бобов-дол/коркина	Бобов дол	Кюстендил	22.955665	42.318518	38635	с	Коркина		korkina	bobov-dol	kjustendil
https://www.ekatte.com/област-ловеч/община-троян/горно-трапе	Троян	Ловеч	24.65673	42.874627	16986	с	Горно трапе		gorno-trape	trojan	lovech
https://www.ekatte.com/област-кърджали/община-момчилград/чуково	Момчилград	Кърджали	25.433097	41.490006	81734	с	Чуково		chukovo	momchilgrad	krdzhali
https://www.ekatte.com/област-пазарджик/община-белово/аканджиево	Белово	Пазарджик	24.045579	42.248857	165	с	Аканджиево		akandzhievo	belovo	pazardzhik
https://www.ekatte.com/област-кърджали/община-крумовград/подрумче	Крумовград	Кърджали	25.71782	41.430779	57062	с	Подрумче		podrumche	krumovgrad	krdzhali
https://www.ekatte.com/област-велико-търново/община-елена/валето	Елена	Велико Търново	25.988228	42.874718	10063	с	Валето		valeto	elena	veliko-trnovo
https://www.ekatte.com/област-варна/община-провадия/добрина	Провадия	Варна	27.464229	43.180057	21484	с	Добрина		dobrina	provadija	varna
https://www.ekatte.com/област-кърджали/община-крумовград/лещарка	Крумовград	Кърджали	25.549768	41.37909	43596	с	Лещарка		lescharka	krumovgrad	krdzhali
https://www.ekatte.com/област-шумен/община-шумен/велино	Шумен	Шумен	27.032124	43.419486	10464	с	Велино		velino	shumen	shumen
https://www.ekatte.com/област-ямбол/община-тунджа/генерал-инзово	Тунджа	Ямбол	26.433903	42.321843	32740	с	Генерал Инзово		general-inzovo	tundzha	jambol
https://www.ekatte.com/област-търговище/община-омуртаг/първан	Омуртаг	Търговище	26.441544	43.038499	59029	с	Първан		prvan	omurtag	trgovische
https://www.ekatte.com/област-плевен/община-белене/петокладенци	Белене	Плевен	25.114875	43.522914	56085	с	Петокладенци		petokladentsi	belene	pleven
https://www.ekatte.com/област-софия/община-елин-пелин/лесново	Елин Пелин	София-област	23.64034	42.643102	43445	с	Лесново		lesnovo	elin-pelin	sofija-oblast
https://www.ekatte.com/област-велико-търново/община-елена/ганев-дол	Елена	Велико Търново	25.967384	42.949723	14430	с	Ганев дол		ganev-dol	elena	veliko-trnovo
https://www.ekatte.com/област-велико-търново/община-елена/велковци	Елена	Велико Търново	25.905962	42.894436	10522	с	Велковци		velkovtsi	elena	veliko-trnovo
https://www.ekatte.com/област-видин/община-белоградчик/чифлик	Белоградчик	Видин	22.645181	43.599602	81459	с	Чифлик		chiflik	belogradchik	vidin
